[
	{
		"sStationId": "knp-m1_1",
		"sStationName": "АЗС 1",
		"sStationAddress": "Московский пр-т, 246",
		"sStationPostal": null,
		"dStationLatitude": 54.707738,
		"dStationLongitude": 20.572911,
		"sCompanyName": "АЗС 1",
		"sStationPhone": "+7 4012 995-466",
		"sStationImage": "images/oilstation.jpg",
		"sStationLabel": "АЗС 1",
		"sStationCategory": "Калининграднефтепродукт",
		"sStationCity": "Калининград",
		"sDepartmentId": "knp-m1_1",
		"sSort": 1
	},
	{
		"sStationId": "knp-m1_3",
		"sStationName": "АЗС 2",
		"sStationAddress": "ул.Гагарина, 2-б",
		"sStationPostal": null,
		"dStationLatitude": 54.715691,
		"dStationLongitude": 20.540895,
		"sCompanyName": "АЗС 2",
		"sStationPhone": "+7 4012 955-464",
		"sStationImage": "images/oilstation.jpg",
		"sStationLabel": "АЗС 2",
		"sStationCategory": "Калининграднефтепродукт",
		"sStationCity": "Калининград",
		"sDepartmentId": "knp-m1_3",
		"sSort": 2
	},
	{
		"sStationId": "knp-m1_2490374",
		"sStationName": "АЗС 3",
		"sStationAddress": "ул. А.Невского, 251",
		"sStationPostal": null,
		"dStationLatitude": 54.759129,
		"dStationLongitude": 20.543509,
		"sCompanyName": "АЗС 3",
		"sStationPhone": "+7 4012 995-425",
		"sStationImage": "images/oilstation.jpg",
		"sStationLabel": "АЗС 3",
		"sStationCategory": "Калининграднефтепродукт",
		"sStationCity": "Калининград",
		"sDepartmentId": "knp-m1_2490374",
		"sSort": 3
	},
	{
		"sStationId": "knp-m1_5",
		"sStationName": "АЗС 4",
		"sStationAddress": "ул. А.Суворова, 139а",
		"sStationPostal": null,
		"dStationLatitude": 54.70739,
		"dStationLongitude": 20.507307,
		"sCompanyName": "АЗС 4",
		"sStationPhone": "+7 4012 995-446",
		"sStationImage": "images/oilstation.jpg",
		"sStationLabel": "АЗС 4",
		"sStationCategory": "Калининграднефтепродукт",
		"sStationCity": "Калининград",
		"sDepartmentId": "knp-m1_5",
		"sSort": 4
	},
	{
		"sStationId": "sng-505",
		"sStationName": "АЗС 5",
		"sStationAddress": "ул. Аллея Смелых, 1 Автоматическая",
		"sStationPostal": null,
		"dStationLatitude": 54.693884,
		"dStationLongitude": 20.524357,
		"sCompanyName": "АЗС 5",
		"sStationPhone": "+7 4012 990-861",
		"sStationImage": "images/oilstation.jpg",
		"sStationLabel": "АЗС 5",
		"sStationCategory": "Калининграднефтепродукт",
		"sStationCity": "Калининград",
		"sDepartmentId": null,
		"sSort": 5
	},
	{
		"sStationId": "knp-m1_7",
		"sStationName": "АЗС 6",
		"sStationAddress": "ул. А.Суворова, 117а Автоматическая",
		"sStationPostal": null,
		"dStationLatitude": 54.70739,
		"dStationLongitude": 20.507307,
		"sCompanyName": "АЗС 6",
		"sStationPhone": "+7 4012 990-861",
		"sStationImage": "images/oilstation.jpg",
		"sStationLabel": "АЗС 6",
		"sStationCategory": "Калининграднефтепродукт",
		"sStationCity": "Калининград",
		"sDepartmentId": "knp-m1_7",
		"sSort": 6
	},
	{
		"sStationId": "knp-m1_9",
		"sStationName": "АЗС 7",
		"sStationAddress": "ул. Парковая аллея, 61",
		"sStationPostal": null,
		"dStationLatitude": 54.74179,
		"dStationLongitude": 20.519533,
		"sCompanyName": "АЗС 7",
		"sStationPhone": "+7 4012 995-477",
		"sStationImage": "images/oilstation.jpg",
		"sStationLabel": "АЗС 7",
		"sStationCategory": "Калининграднефтепродукт",
		"sStationCity": "Калининград",
		"sDepartmentId": "knp-m1_9",
		"sSort": 7
	},
	{
		"sStationId": "knp-m1_11",
		"sStationName": "АЗС 8",
		"sStationAddress": "Советский пр-т, 181",
		"sStationPostal": null,
		"dStationLatitude": 54.746264,
		"dStationLongitude": 20.462041,
		"sCompanyName": "АЗС 8",
		"sStationPhone": "+7 4012 995-443",
		"sStationImage": "images/oilstation.jpg",
		"sStationLabel": "АЗС 8",
		"sStationCategory": "Калининграднефтепродукт",
		"sStationCity": "Калининград",
		"sDepartmentId": "knp-m1_11",
		"sSort": 8
	},
	{
		"sStationId": "knp-m1_13",
		"sStationName": "АЗС 9",
		"sStationAddress": "ул. Калининградская, 39",
		"sStationPostal": null,
		"dStationLatitude": 54.39594,
		"dStationLongitude": 20.644848,
		"sCompanyName": "АЗС 9",
		"sStationPhone": "+7 4012 995-456",
		"sStationImage": "images/oilstation.jpg",
		"sStationLabel": "АЗС 9",
		"sStationCategory": "Калининграднефтепродукт",
		"sStationCity": "Багратионовск",
		"sDepartmentId": "knp-m1_13",
		"sSort": 9
	},
	{
		"sStationId": "knp-m1_15",
		"sStationName": "АЗС 10",
		"sStationAddress": "ул. Черноморская, 35 Автоматическая",
		"sStationPostal": null,
		"dStationLatitude": 54.649912,
		"dStationLongitude": 19.920222,
		"sCompanyName": "АЗС 10",
		"sStationPhone": "+7 4012 990-861",
		"sStationImage": "images/oilstation.jpg",
		"sStationLabel": "АЗС 10",
		"sStationCategory": "Калининграднефтепродукт",
		"sStationCity": "Балтийск",
		"sDepartmentId": "knp-m1_15",
		"sSort": 10
	},
	{
		"sStationId": "knp-m1_17",
		"sStationName": "АЗС 11",
		"sStationAddress": "ул. Потемкина, 20",
		"sStationPostal": null,
		"dStationLatitude": 54.957898,
		"dStationLongitude": 20.485146,
		"sCompanyName": "АЗС 11",
		"sStationPhone": "+7 4012 995-471",
		"sStationImage": "images/oilstation.jpg",
		"sStationLabel": "АЗС 11",
		"sStationCategory": "Калининграднефтепродукт",
		"sStationCity": "Зеленоградск",
		"sDepartmentId": "knp-m1_17",
		"sSort": 11
	},
	{
		"sStationId": "knp-m1_19",
		"sStationName": "АЗС 12",
		"sStationAddress": "ул. Победы, 2В",
		"sStationPostal": null,
		"dStationLatitude": 54.574382,
		"dStationLongitude": 20.176377,
		"sCompanyName": "АЗС 12",
		"sStationPhone": "+7 4012 995-474",
		"sStationImage": "images/oilstation.jpg",
		"sStationLabel": "АЗС 12",
		"sStationCategory": "Калининграднефтепродукт",
		"sStationCity": "Ладушкин",
		"sDepartmentId": "knp-m1_19",
		"sSort": 12
	},
	{
		"sStationId": "knp-m1_21",
		"sStationName": "АЗС 14",
		"sStationAddress": "ул. Железнодорожная, 5",
		"sStationPostal": null,
		"dStationLatitude": 54.674189,
		"dStationLongitude": 20.117977,
		"sCompanyName": "АЗС 14",
		"sStationPhone": "+7 4012 995-438",
		"sStationImage": "images/oilstation.jpg",
		"sStationLabel": "АЗС 14",
		"sStationCategory": "Калининграднефтепродукт",
		"sStationCity": "Светлый",
		"sDepartmentId": "knp-m1_21",
		"sSort": 13
	},
	{
		"sStationId": "knp-m1_23",
		"sStationName": "АЗС 15",
		"sStationAddress": "Калининградский пр-т, 18а",
		"sStationPostal": null,
		"dStationLatitude": 54.930683,
		"dStationLongitude": 20.165202,
		"sCompanyName": "АЗС 15",
		"sStationPhone": "+7 4012 995-467",
		"sStationImage": "images/oilstation.jpg",
		"sStationLabel": "АЗС 15",
		"sStationCategory": "Калининграднефтепродукт",
		"sStationCity": "Светлогорск",
		"sDepartmentId": "knp-m1_23",
		"sSort": 14
	},
	{
		"sStationId": "knp-m1_25",
		"sStationName": "АЗС 16",
		"sStationAddress": "ул. Калининградское шоссе, 7",
		"sStationPostal": null,
		"dStationLatitude": 55.070963,
		"dStationLongitude": 21.881667,
		"sCompanyName": "АЗС 16",
		"sStationPhone": "+7 4012 995-475",
		"sStationImage": "images/oilstation.jpg",
		"sStationLabel": "АЗС 16",
		"sStationCategory": "Калининграднефтепродукт",
		"sStationCity": "Советск",
		"sDepartmentId": "knp-m1_25",
		"sSort": 15
	},
	{
		"sStationId": "knp-m1_27",
		"sStationName": "АЗС 17",
		"sStationAddress": "ул. Тельмана, 16",
		"sStationPostal": null,
		"dStationLatitude": 54.878185,
		"dStationLongitude": 21.656145,
		"sCompanyName": "АЗС 17",
		"sStationPhone": "+7 4012 995-462",
		"sStationImage": "images/oilstation.jpg",
		"sStationLabel": "АЗС 17",
		"sStationCategory": "Калининграднефтепродукт",
		"sStationCity": "п. Большаково",
		"sDepartmentId": "knp-m1_27",
		"sSort": 16
	},
	{
		"sStationId": "knp-m1_29",
		"sStationName": "АЗС 18",
		"sStationAddress": "ул. Советская, 1а",
		"sStationPostal": null,
		"dStationLatitude": 55.047982,
		"dStationLongitude": 21.692994,
		"sCompanyName": "АЗС 18",
		"sStationPhone": "+7 4012 995-463",
		"sStationImage": "images/oilstation.jpg",
		"sStationLabel": "АЗС 18",
		"sStationCategory": "Калининграднефтепродукт",
		"sStationCity": "Славск",
		"sDepartmentId": "knp-m1_29",
		"sSort": 17
	},
	{
		"sStationId": "knp-m1_31",
		"sStationName": "АЗС 19",
		"sStationAddress": "ул. Победы, 162",
		"sStationPostal": null,
		"dStationLatitude": 55.019671,
		"dStationLongitude": 22.074122,
		"sCompanyName": "АЗС 19",
		"sStationPhone": "+7 4012 995-478",
		"sStationImage": "images/oilstation.jpg",
		"sStationLabel": "АЗС 19",
		"sStationCategory": "Калининграднефтепродукт",
		"sStationCity": "Неман",
		"sDepartmentId": "knp-m1_31",
		"sSort": 18
	},
	{
		"sStationId": "knp-m1_45",
		"sStationName": "АЗС 20",
		"sStationAddress": "Гусевское шоссе, 22",
		"sStationPostal": null,
		"dStationLatitude": 54.629591,
		"dStationLongitude": 21.823698,
		"sCompanyName": "АЗС 20",
		"sStationPhone": "+7 4012 995-480",
		"sStationImage": "images/oilstation.jpg",
		"sStationLabel": "АЗС 20",
		"sStationCategory": "Калининграднефтепродукт",
		"sStationCity": "Черняховск",
		"sDepartmentId": "knp-m1_45",
		"sSort": 19
	},
	{
		"sStationId": "knp-m1_47",
		"sStationName": "АЗС 21",
		"sStationAddress": "пр-т Ленина, 7а",
		"sStationPostal": null,
		"dStationLatitude": 54.594214,
		"dStationLongitude": 22.195215,
		"sCompanyName": "АЗС 21",
		"sStationPhone": "+7 4012 995-481",
		"sStationImage": "images/oilstation.jpg",
		"sStationLabel": "АЗС 21",
		"sStationCategory": "Калининграднефтепродукт",
		"sStationCity": "Гусев",
		"sDepartmentId": "knp-m1_47",
		"sSort": 20
	},
	{
		"sStationId": "knp-m1_49",
		"sStationName": "АЗС 22",
		"sStationAddress": "ул. Черняховского, 20",
		"sStationPostal": null,
		"dStationLatitude": 54.418206,
		"dStationLongitude": 22.012731,
		"sCompanyName": "АЗС 22",
		"sStationPhone": "+7 4012 995-454",
		"sStationImage": "images/oilstation.jpg",
		"sStationLabel": "АЗС 22",
		"sStationCategory": "Калининграднефтепродукт",
		"sStationCity": "Озерск",
		"sDepartmentId": "knp-m1_49",
		"sSort": 21
	},
	{
		"sStationId": "knp-m1_33",
		"sStationName": "АЗС 23",
		"sStationAddress": "ул. Калининградская, 36а",
		"sStationPostal": null,
		"dStationLatitude": 54.650917,
		"dStationLongitude": 21.057921,
		"sCompanyName": "АЗС 23",
		"sStationPhone": "+7 4012 995-457",
		"sStationImage": "images/oilstation.jpg",
		"sStationLabel": "АЗС 23",
		"sStationCategory": "Калининграднефтепродукт",
		"sStationCity": "Гвардейск",
		"sDepartmentId": "knp-m1_33",
		"sSort": 22
	},
	{
		"sStationId": "knp-m1_35",
		"sStationName": "АЗС 24",
		"sStationAddress": "ул. Калининградская, 65",
		"sStationPostal": null,
		"dStationLatitude": 54.853133,
		"dStationLongitude": 21.091482,
		"sCompanyName": "АЗС 24",
		"sStationPhone": "+7 4012 995-458",
		"sStationImage": "images/oilstation.jpg",
		"sStationLabel": "АЗС 24",
		"sStationCategory": "Калининграднефтепродукт",
		"sStationCity": "Полесск",
		"sDepartmentId": "knp-m1_35",
		"sSort": 23
	},
	{
		"sStationId": "knp-m1_51",
		"sStationName": "АЗС 25",
		"sStationAddress": "ул. Ленинградская, 35",
		"sStationPostal": null,
		"dStationLatitude": 54.633171,
		"dStationLongitude": 22.589216,
		"sCompanyName": "АЗС 25",
		"sStationPhone": "+7 4014 422-703",
		"sStationImage": "images/oilstation.jpg",
		"sStationLabel": "АЗС 25",
		"sStationCategory": "Калининграднефтепродукт",
		"sStationCity": "Нестеров",
		"sDepartmentId": "knp-m1_51",
		"sSort": 24
	},
	{
		"sStationId": "knp-m1_37",
		"sStationName": "АЗС 26",
		"sStationAddress": "ул. Аллея Смелых, 210 Автоматическая",
		"sStationPostal": null,
		"dStationLatitude": 54.666046,
		"dStationLongitude": 20.516048,
		"sCompanyName": "АЗС 26",
		"sStationPhone": "+7 4012 990-861",
		"sStationImage": "images/oilstation.jpg",
		"sStationLabel": "АЗС 26",
		"sStationCategory": "Калининграднефтепродукт",
		"sStationCity": "Калининград",
		"sDepartmentId": "knp-m1_37",
		"sSort": 25
	},
	{
		"sStationId": "knp-m1_39",
		"sStationName": "АЗС 27",
		"sStationAddress": "ул. Калининградское шоссе, 33",
		"sStationPostal": null,
		"dStationLatitude": 54.465219,
		"dStationLongitude": 19.9554,
		"sCompanyName": "АЗС 27",
		"sStationPhone": "+7 4012 995-468",
		"sStationImage": "images/oilstation.jpg",
		"sStationLabel": "АЗС 27",
		"sStationCategory": "Калининграднефтепродукт",
		"sStationCity": "Мамоново",
		"sDepartmentId": "knp-m1_39",
		"sSort": 26
	},
	{
		"sStationId": "knp-m1_41",
		"sStationName": "АЗС 28",
		"sStationAddress": "ул.Черняховского, 25",
		"sStationPostal": null,
		"dStationLatitude": 54.360936,
		"dStationLongitude": 21.319941,
		"sCompanyName": "АЗС 28",
		"sStationPhone": "+7 4015 723-250",
		"sStationImage": "images/oilstation.jpg",
		"sStationLabel": "АЗС 28",
		"sStationCategory": "Калининграднефтепродукт",
		"sStationCity": "пос. Железнодорожный",
		"sDepartmentId": "knp-m1_41",
		"sSort": 27
	},
	{
		"sStationId": "knp-m1_43",
		"sStationName": "АЗС 29",
		"sStationAddress": "пр-т Победы, 221а",
		"sStationPostal": null,
		"dStationLatitude": 54.712092,
		"dStationLongitude": 20.421482,
		"sCompanyName": "АЗС 29",
		"sStationPhone": "+7 4012 995-455",
		"sStationImage": "images/oilstation.jpg",
		"sStationLabel": "АЗС 29",
		"sStationCategory": "Калининграднефтепродукт",
		"sStationCity": "Калининград",
		"sDepartmentId": "knp-m1_43",
		"sSort": 28
	},
	{
		"sStationId": "knp-m1_59",
		"sStationName": "АЗС 30",
		"sStationAddress": "пр-т Ленина, 82",
		"sStationPostal": null,
		"dStationLatitude": 54.595377,
		"dStationLongitude": 22.231794,
		"sCompanyName": "АЗС 30",
		"sStationPhone": "+7 4012 995-452",
		"sStationImage": "images/oilstation.jpg",
		"sStationLabel": "АЗС 30",
		"sStationCategory": "Калининграднефтепродукт",
		"sStationCity": "Гусев",
		"sDepartmentId": "knp-m1_59",
		"sSort": 29
	},
	{
		"sStationId": "knp-m1_53",
		"sStationName": "АЗС 31",
		"sStationAddress": "ул. Калининградское шоссе, 44",
		"sStationPostal": null,
		"dStationLatitude": 54.785506,
		"dStationLongitude": 20.628238,
		"sCompanyName": "АЗС 31",
		"sStationPhone": "+7 4012 995-469",
		"sStationImage": "images/oilstation.jpg",
		"sStationLabel": "АЗС 31",
		"sStationCategory": "Калининграднефтепродукт",
		"sStationCity": "Гурьевск",
		"sDepartmentId": "knp-m1_53",
		"sSort": 30
	},
	{
		"sStationId": "knp-m1_61",
		"sStationName": "АЗС 32",
		"sStationAddress": "ул. Калининградская, 41",
		"sStationPostal": null,
		"dStationLatitude": 54.634406,
		"dStationLongitude": 21.789212,
		"sCompanyName": "АЗС 32",
		"sStationPhone": "+7 4012 995-470",
		"sStationImage": "images/oilstation.jpg",
		"sStationLabel": "АЗС 32",
		"sStationCategory": "Калининграднефтепродукт",
		"sStationCity": "Черняховск",
		"sDepartmentId": "knp-m1_61",
		"sSort": 31
	},
	{
		"sStationId": "knp-m1_55",
		"sStationName": "АЗС 33",
		"sStationAddress": "ул. Дзержинского, 251",
		"sStationPostal": null,
		"dStationLatitude": 54.656563,
		"dStationLongitude": 20.544533,
		"sCompanyName": "АЗС 33",
		"sStationPhone": "+7 4012 995-428",
		"sStationImage": "images/oilstation.jpg",
		"sStationLabel": "АЗС 33",
		"sStationCategory": "Калининграднефтепродукт",
		"sStationCity": "Калининград",
		"sDepartmentId": "knp-m1_55",
		"sSort": 32
	},
	{
		"sStationId": "sng-540",
		"sStationName": "АЗС 34",
		"sStationAddress": "ул. Советская, 58 Автоматическая",
		"sStationPostal": null,
		"dStationLatitude": 54.936295,
		"dStationLongitude": 22.485308,
		"sCompanyName": "АЗС 34",
		"sStationPhone": "+7 4012 990-861",
		"sStationImage": "images/oilstation.jpg",
		"sStationLabel": "АЗС 34",
		"sStationCategory": "Калининграднефтепродукт",
		"sStationCity": "Краснознаменск",
		"sDepartmentId": null,
		"sSort": 33
	},
	{
		"sStationId": "knp-m1_63",
		"sStationName": "АЗС 35",
		"sStationAddress": "146-й км автодороги Калининград – Вильнюс Автоматическая",
		"sStationPostal": null,
		"dStationLatitude": 54.640055,
		"dStationLongitude": 22.733431,
		"sCompanyName": "АЗС 35",
		"sStationPhone": "+7 4012 990-861",
		"sStationImage": "images/oilstation.jpg",
		"sStationLabel": "АЗС 35",
		"sStationCategory": "Калининграднефтепродукт",
		"sStationCity": "пос. Чернышевское",
		"sDepartmentId": "knp-m1_63",
		"sSort": 34
	},
	{
		"sStationId": "knp-m1_57",
		"sStationName": "АЗС 38",
		"sStationAddress": "ул. Подполковника Емельянова, 259 Автоматическая",
		"sStationPostal": null,
		"dStationLatitude": 54.682518,
		"dStationLongitude": 20.585847,
		"sCompanyName": "АЗС 38",
		"sStationPhone": "+7 4012 990-861",
		"sStationImage": "images/oilstation.jpg",
		"sStationLabel": "АЗС 38",
		"sStationCategory": "Калининграднефтепродукт",
		"sStationCity": "Калининград",
		"sDepartmentId": "knp-m1_57",
		"sSort": 35
	},
	{
		"sStationId": "sng-522",
		"sStationName": "АЗС 39",
		"sStationAddress": "ул. Гагарина, 10 Автоматическая",
		"sStationPostal": null,
		"dStationLatitude": 54.681971,
		"dStationLongitude": 20.139312,
		"sCompanyName": "АЗС 39",
		"sStationPhone": "+7 4012 990-861",
		"sStationImage": "images/oilstation.jpg",
		"sStationLabel": "АЗС 39",
		"sStationCategory": "Калининграднефтепродукт",
		"sStationCity": "Светлый",
		"sDepartmentId": null,
		"sSort": 36
	},
	{
		"sStationId": "knp-m1_65",
		"sStationName": "АЗС 40",
		"sStationAddress": "пос. Новоселово 140",
		"sStationPostal": null,
		"dStationLatitude": 54.461854,
		"dStationLongitude": 20.134165,
		"sCompanyName": "АЗС 40",
		"sStationPhone": "+7 4012 995-472",
		"sStationImage": "images/oilstation.jpg",
		"sStationLabel": "АЗС 40",
		"sStationCategory": "Калининграднефтепродукт",
		"sStationCity": "Багратионовский р-н",
		"sDepartmentId": "knp-m1_65",
		"sSort": 37
	},
	{
		"sStationId": "knp-m1_67",
		"sStationName": "АЗС 49",
		"sStationAddress": "Московский пр-т, 266",
		"sStationPostal": null,
		"dStationLatitude": 54.705944,
		"dStationLongitude": 20.583799,
		"sCompanyName": "АЗС 49",
		"sStationPhone": "+7 4012 995-461",
		"sStationImage": "images/oilstation.jpg",
		"sStationLabel": "АЗС 49",
		"sStationCategory": "Калининграднефтепродукт",
		"sStationCity": "Калининград",
		"sDepartmentId": "knp-m1_67",
		"sSort": 38
	},
	{
		"sStationId": "knp-m1_69",
		"sStationName": "АЗС 50",
		"sStationAddress": "Советский пр-кт, 248",
		"sStationPostal": null,
		"dStationLatitude": 54.753565,
		"dStationLongitude": 20.450965,
		"sCompanyName": "АЗС 50",
		"sStationPhone": "+7 4012 995-473",
		"sStationImage": "images/oilstation.jpg",
		"sStationLabel": "АЗС 50",
		"sStationCategory": "Калининграднефтепродукт",
		"sStationCity": "Калининград",
		"sDepartmentId": "knp-m1_69",
		"sSort": 39
	},
	{
		"sStationId": "knp-m1_71",
		"sStationName": "АЗС 52",
		"sStationAddress": "ул. Калининградская, 91 Автоматическая",
		"sStationPostal": null,
		"dStationLatitude": 54.39594,
		"dStationLongitude": 20.644848,
		"sCompanyName": "АЗС 52",
		"sStationPhone": "+7 4012 990-861",
		"sStationImage": "images/oilstation.jpg",
		"sStationLabel": "АЗС 52",
		"sStationCategory": "Калининграднефтепродукт",
		"sStationCity": "Багратионовск",
		"sDepartmentId": "knp-m1_71",
		"sSort": 40
	},
	{
		"sStationId": "sng-525",
		"sStationName": "АЗС 53",
		"sStationAddress": "ул. Сельская, 2а Автоматическая",
		"sStationPostal": null,
		"dStationLatitude": 55.066262,
		"dStationLongitude": 21.934901,
		"sCompanyName": "АЗС 53",
		"sStationPhone": "+7 4012 990-861",
		"sStationImage": "images/oilstation.jpg",
		"sStationLabel": "АЗС 53",
		"sStationCategory": "Калининграднефтепродукт",
		"sStationCity": "Советск",
		"sDepartmentId": null,
		"sSort": 41
	},
	{
		"sStationId": "sng-543",
		"sStationName": "АЗС 55",
		"sStationAddress": "ул. Калининградская, 10а Автоматическая",
		"sStationPostal": null,
		"dStationLatitude": 54.447712,
		"dStationLongitude": 21.019033,
		"sCompanyName": "АЗС 55",
		"sStationPhone": "+7 4012 990-861",
		"sStationImage": "images/oilstation.jpg",
		"sStationLabel": "АЗС 55",
		"sStationCategory": "Калининграднефтепродукт",
		"sStationCity": "п. Шевченко",
		"sDepartmentId": null,
		"sSort": 42
	},
	{
		"sStationId": "knp-m1_95082409",
		"sStationName": "АЗС 56",
		"sStationAddress": "ул. Б.Окружная, 21 Автоматическая",
		"sStationPostal": null,
		"dStationLatitude": 54.759675,
		"dStationLongitude": 20.453687,
		"sCompanyName": "АЗС 56",
		"sStationPhone": "+7 4012 990-861",
		"sStationImage": "images/oilstation.jpg",
		"sStationLabel": "АЗС 56",
		"sStationCategory": "Калининграднефтепродукт",
		"sStationCity": "Калининград",
		"sDepartmentId": "knp-m1_95082409",
		"sSort": 43
	},
	{
		"sStationId": "knp-m1_73",
		"sStationName": "АЗС 57",
		"sStationAddress": "ул. Центральная, 21",
		"sStationPostal": null,
		"dStationLatitude": 55.059858,
		"dStationLongitude": 22.5822,
		"sCompanyName": "АЗС 57",
		"sStationPhone": "+7 4016 422-796",
		"sStationImage": "images/oilstation.jpg",
		"sStationLabel": "АЗС 57",
		"sStationCategory": "Калининграднефтепродукт",
		"sStationCity": "п. Пограничный",
		"sDepartmentId": "knp-m1_73",
		"sSort": 44
	},
	{
		"sStationId": "knp-m1_75",
		"sStationName": "АЗС 60",
		"sStationAddress": "ул. Советская, 100а",
		"sStationPostal": null,
		"dStationLatitude": 54.85876,
		"dStationLongitude": 19.94261,
		"sCompanyName": "АЗС 60",
		"sStationPhone": "+7 4012 995-460",
		"sStationImage": "images/oilstation.jpg",
		"sStationLabel": "АЗС 60",
		"sStationCategory": "Калининграднефтепродукт",
		"sStationCity": "г. Янтарный",
		"sDepartmentId": "knp-m1_75",
		"sSort": 45
	},
	{
		"sStationId": "kas-m1_66",
		"sStationName": "АЗК-1",
		"sStationAddress": "ул. Коммуны, д. 14, литер А",
		"sStationPostal": null,
		"dStationLatitude": 59.940859,
		"dStationLongitude": 30.503966,
		"sCompanyName": "АЗК-1",
		"sStationPhone": "521-49-94",
		"sStationImage": "images/azk-1_1.jpg",
		"sStationLabel": "АЗК-1",
		"sStationCategory": "Киришиавтосервис",
		"sStationCity": "Санкт-Петербург",
		"sDepartmentId": "kas-m1_66",
		"sSort": 46
	},
	{
		"sStationId": "kas-m1_54",
		"sStationName": "АЗК-2",
		"sStationAddress": "Пискаревский пр., д. 135",
		"sStationPostal": null,
		"dStationLatitude": 59.97045,
		"dStationLongitude": 30.285633,
		"sCompanyName": "АЗК-2",
		"sStationPhone": "-1194",
		"sStationImage": "images/azk-2_6.jpg",
		"sStationLabel": "АЗК-2",
		"sStationCategory": "Киришиавтосервис",
		"sStationCity": "Санкт-Петербург",
		"sDepartmentId": "kas-m1_54",
		"sSort": 47
	},
	{
		"sStationId": "kas-m1_19",
		"sStationName": "АЗК-3",
		"sStationAddress": "1-й Верхний переулок, д. 3, литер А",
		"sStationPostal": null,
		"dStationLatitude": 60.056967,
		"dStationLongitude": 30.384833,
		"sCompanyName": "АЗК-3",
		"sStationPhone": "592-74-42",
		"sStationImage": "images/azk-3_1.jpg",
		"sStationLabel": "АЗК-3",
		"sStationCategory": "Киришиавтосервис",
		"sStationCity": "Санкт-Петербург",
		"sDepartmentId": "kas-m1_19",
		"sSort": 48
	},
	{
		"sStationId": "kas-m1_79",
		"sStationName": "АЗК-4",
		"sStationAddress": "пос. Шушары , Московское шоссе, д. 11, литер А",
		"sStationPostal": null,
		"dStationLatitude": 59.811767,
		"dStationLongitude": 30.382867,
		"sCompanyName": "АЗК-4",
		"sStationPhone": "325-27-63",
		"sStationImage": "images/azk-4_6.jpg",
		"sStationLabel": "АЗК-4",
		"sStationCategory": "Киришиавтосервис",
		"sStationCity": "Санкт-Петербург",
		"sDepartmentId": "kas-m1_79",
		"sSort": 49
	},
	{
		"sStationId": "kas-m1_3835846",
		"sStationName": "АЗК-6",
		"sStationAddress": "588+980 км (лево) (напротив д. Придорожная)",
		"sStationPostal": null,
		"dStationLatitude": 59.17533,
		"dStationLongitude": 31.555286,
		"sCompanyName": "АЗК-6",
		"sStationPhone": "8 (81665) 41-524",
		"sStationImage": "images/azk-6_3.jpg",
		"sStationLabel": "АЗК-6",
		"sStationCategory": "Киришиавтосервис",
		"sStationCity": "автодорога Москва-СПб",
		"sDepartmentId": "kas-m1_3835846",
		"sSort": 50
	},
	{
		"sStationId": "kas-m1_3835848",
		"sStationName": "АЗК-7",
		"sStationAddress": "пр. Обуховской обороны, д. 138, корп. 1, литер А",
		"sStationPostal": null,
		"dStationLatitude": 59.846989,
		"dStationLongitude": 30.483982,
		"sCompanyName": "АЗК-7",
		"sStationPhone": "700-42-56",
		"sStationImage": "images/azk-7_1.jpg",
		"sStationLabel": "АЗК-7",
		"sStationCategory": "Киришиавтосервис",
		"sStationCity": "Санкт-Петербург",
		"sDepartmentId": "kas-m1_3835848",
		"sSort": 51
	},
	{
		"sStationId": "kas-m1_130425",
		"sStationName": "АЗК-8",
		"sStationAddress": "Торфяная дорога, д. 10, литер А",
		"sStationPostal": null,
		"dStationLatitude": 59.991759,
		"dStationLongitude": 30.25495,
		"sCompanyName": "АЗК-8",
		"sStationPhone": "430-97-09",
		"sStationImage": "images/azk-8_1.jpg",
		"sStationLabel": "АЗК-8",
		"sStationCategory": "Киришиавтосервис",
		"sStationCity": "Санкт-Петербург",
		"sDepartmentId": "kas-m1_130425",
		"sSort": 52
	},
	{
		"sStationId": "kas-m1_3835850",
		"sStationName": "АЗК-9",
		"sStationAddress": "мкр. Черная Речка, д. 26",
		"sStationPostal": null,
		"dStationLatitude": 60.17685,
		"dStationLongitude": 30.150667,
		"sCompanyName": "АЗК-9",
		"sStationPhone": "597-19-90",
		"sStationImage": "images/azk-9_1.jpg",
		"sStationLabel": "АЗК-9",
		"sStationCategory": "Киришиавтосервис",
		"sStationCity": "п. Сертолово",
		"sDepartmentId": "kas-m1_3835850",
		"sSort": 53
	},
	{
		"sStationId": "kas-m1_163849",
		"sStationName": "АЗК-10",
		"sStationAddress": "ул. Руставели, д.48а, литер А",
		"sStationPostal": null,
		"dStationLatitude": 60.026616,
		"dStationLongitude": 30.431933,
		"sCompanyName": "АЗК-10",
		"sStationPhone": "531-66-81",
		"sStationImage": "images/azk-10_2.jpg",
		"sStationLabel": "АЗК-10",
		"sStationCategory": "Киришиавтосервис",
		"sStationCity": "Санкт-Петербург",
		"sDepartmentId": "kas-m1_163849",
		"sSort": 54
	},
	{
		"sStationId": "kas-m1_3835853",
		"sStationName": "АЗК-11",
		"sStationAddress": "ул. Софийская, д.60, корп. 4, литер А",
		"sStationPostal": null,
		"dStationLatitude": 59.856581,
		"dStationLongitude": 30.423961,
		"sCompanyName": "АЗК-11",
		"sStationPhone": "701-81-64",
		"sStationImage": "images/azk_11_1.jpg",
		"sStationLabel": "АЗК-11",
		"sStationCategory": "Киришиавтосервис",
		"sStationCity": "Санкт-Петербург",
		"sDepartmentId": "kas-m1_3835853",
		"sSort": 55
	},
	{
		"sStationId": "kas-m1_3828936",
		"sStationName": "АЗК-13",
		"sStationAddress": "квартал 1, д. 1-А",
		"sStationPostal": null,
		"dStationLatitude": 59.688767,
		"dStationLongitude": 29.920267,
		"sCompanyName": "АЗК-13",
		"sStationPhone": "8 (921) 989-74-77",
		"sStationImage": "images/azk-13_1.jpg",
		"sStationLabel": "АЗК-13",
		"sStationCategory": "Киришиавтосервис",
		"sStationCity": "с. Русско-Высоцкое",
		"sDepartmentId": "kas-m1_3828936",
		"sSort": 56
	},
	{
		"sStationId": "kas-m1_119464",
		"sStationName": "АЗК-14",
		"sStationAddress": "Приморское шоссе, д. 142, литер А",
		"sStationPostal": null,
		"dStationLatitude": 60.033417,
		"dStationLongitude": 29.982333,
		"sCompanyName": "АЗК-14",
		"sStationPhone": "434-89-53",
		"sStationImage": "images/azk-14_2.jpg",
		"sStationLabel": "АЗК-14",
		"sStationCategory": "Киришиавтосервис",
		"sStationCity": "пос. Лисий Нос",
		"sDepartmentId": "kas-m1_119464",
		"sSort": 57
	},
	{
		"sStationId": "kas-m1_3835855",
		"sStationName": "АЗК-15",
		"sStationAddress": "Дорога на Турухтанные острова, д. 18а, литер А",
		"sStationPostal": "44444",
		"dStationLatitude": 59.8695,
		"dStationLongitude": 30.233333,
		"sCompanyName": "АЗК-15",
		"sStationPhone": "324-21-89",
		"sStationImage": "images/azk-15_1.jpg",
		"sStationLabel": "АЗК-15",
		"sStationCategory": "Киришиавтосервис",
		"sStationCity": "Санкт-Петербург",
		"sDepartmentId": "kas-m1_3835855",
		"sSort": 58
	},
	{
		"sStationId": "kas-m1_3828412",
		"sStationName": "АЗК-16",
		"sStationAddress": "а/д Москва-СПб, 546+750 км (право)",
		"sStationPostal": null,
		"dStationLatitude": 58.826559,
		"dStationLongitude": 31.479028,
		"sCompanyName": "АЗК-16",
		"sStationPhone": "8 (921) 895-73-97",
		"sStationImage": "images/azk-16_2.jpg",
		"sStationLabel": "АЗК-16",
		"sStationCategory": "Киришиавтосервис",
		"sStationCity": "д. Мясной Бор",
		"sDepartmentId": "kas-m1_3828412",
		"sSort": 59
	},
	{
		"sStationId": "kas-m1_3835858",
		"sStationName": "АЗК-17",
		"sStationAddress": "пос. Шушары, Московское шоссе, д. 156, литер А",
		"sStationPostal": null,
		"dStationLatitude": 59.765891,
		"dStationLongitude": 30.463874,
		"sCompanyName": "АЗК-17",
		"sStationPhone": "8 (921) 875-42-16",
		"sStationImage": "images/azk-17_1.jpg",
		"sStationLabel": "АЗК-17",
		"sStationCategory": "Киришиавтосервис",
		"sStationCity": "Санкт-Петербург",
		"sDepartmentId": "kas-m1_3835858",
		"sSort": 60
	},
	{
		"sStationId": "kas-m1_31",
		"sStationName": "АЗК-18",
		"sStationAddress": "ул. Балтийская, д. 43, литер А",
		"sStationPostal": null,
		"dStationLatitude": 59.899535,
		"dStationLongitude": 30.288713,
		"sCompanyName": "АЗК-18",
		"sStationPhone": "252-08-17",
		"sStationImage": "images/azk-18_3.jpg",
		"sStationLabel": "АЗК-18",
		"sStationCategory": "Киришиавтосервис",
		"sStationCity": "Санкт-Петербург",
		"sDepartmentId": "kas-m1_31",
		"sSort": 61
	},
	{
		"sStationId": "kas-m1_3831150",
		"sStationName": "АЗК-19",
		"sStationAddress": "пр. Маршала Жукова, д. 23, литер А",
		"sStationPostal": null,
		"dStationLatitude": 59.861682,
		"dStationLongitude": 30.233653,
		"sCompanyName": "АЗК-19",
		"sStationPhone": "753-17-11",
		"sStationImage": "images/azk-19_1.jpg",
		"sStationLabel": "АЗК-19",
		"sStationCategory": "Киришиавтосервис",
		"sStationCity": "Санкт-Петербург",
		"sDepartmentId": "kas-m1_3831150",
		"sSort": 62
	},
	{
		"sStationId": "kas-m1_3835865",
		"sStationName": "АЗК-20",
		"sStationAddress": "ул. Разметелевская, уч. 63в, лит. А",
		"sStationPostal": null,
		"dStationLatitude": 59.897461,
		"dStationLongitude": 30.687697,
		"sCompanyName": "АЗК-20",
		"sStationPhone": "8 (921) 318-54-34",
		"sStationImage": "images/azk-20_2.jpg",
		"sStationLabel": "АЗК-20",
		"sStationCategory": "Киришиавтосервис",
		"sStationCity": "д. Разметелево",
		"sDepartmentId": "kas-m1_3835865",
		"sSort": 63
	},
	{
		"sStationId": "kas-m1_143547",
		"sStationName": "АЗК-22",
		"sStationAddress": "\"промзона \"\"Янино\"\", уч. № 1, литер А\"",
		"sStationPostal": null,
		"dStationLatitude": 59.944262,
		"dStationLongitude": 30.591116,
		"sCompanyName": "АЗК-22",
		"sStationPhone": "8 (921) 435-43-08",
		"sStationImage": "images/azk-22_1.jpg",
		"sStationLabel": "АЗК-22",
		"sStationCategory": "Киришиавтосервис",
		"sStationCity": "д. Янино-1",
		"sDepartmentId": "kas-m1_143547",
		"sSort": 64
	},
	{
		"sStationId": "kas-m1_104",
		"sStationName": "АЗК-23",
		"sStationAddress": "Выборгское ш., д.6б, лит А",
		"sStationPostal": null,
		"dStationLatitude": 60.034479,
		"dStationLongitude": 30.317845,
		"sCompanyName": "АЗК-23",
		"sStationPhone": "554-49-34",
		"sStationImage": "images/azk-23_1.jpg",
		"sStationLabel": "АЗК-23",
		"sStationCategory": "Киришиавтосервис",
		"sStationCity": "Санкт-Петербург",
		"sDepartmentId": "kas-m1_104",
		"sSort": 65
	},
	{
		"sStationId": "kas-m1_106",
		"sStationName": "АЗК-24",
		"sStationAddress": "Рябовское ш., д. 115, к. 3, лит. А",
		"sStationPostal": null,
		"dStationLatitude": 59.982428,
		"dStationLongitude": 30.513021,
		"sCompanyName": "АЗК-24",
		"sStationPhone": "-1407",
		"sStationImage": "images/azk-24_3.jpg",
		"sStationLabel": "АЗК-24",
		"sStationCategory": "Киришиавтосервис",
		"sStationCity": "Санкт-Петербург",
		"sDepartmentId": "kas-m1_106",
		"sSort": 66
	},
	{
		"sStationId": "kas-m1_3835999",
		"sStationName": "АЗК-25",
		"sStationAddress": "Пулковское шоссе, дом 71",
		"sStationPostal": null,
		"dStationLatitude": 59.761572,
		"dStationLongitude": 30.326684,
		"sCompanyName": "АЗК-25",
		"sStationPhone": "9219888341",
		"sStationImage": "images/azk-25_1.jpg",
		"sStationLabel": "АЗК-25",
		"sStationCategory": "Киришиавтосервис",
		"sStationCity": "Санкт-Петербург",
		"sDepartmentId": "kas-m1_3835999",
		"sSort": 67
	},
	{
		"sStationId": "kas-m1_3836001",
		"sStationName": "АЗК-26",
		"sStationAddress": "Лапинский пр., д. 10",
		"sStationPostal": null,
		"dStationLatitude": 59.980484,
		"dStationLongitude": 30.459962,
		"sCompanyName": "АЗК-26",
		"sStationPhone": "-1255",
		"sStationImage": "images/azk-26_1.jpg",
		"sStationLabel": "АЗК-26",
		"sStationCategory": "Киришиавтосервис",
		"sStationCity": "Санкт-Петербург",
		"sDepartmentId": "kas-m1_3836001",
		"sSort": 68
	},
	{
		"sStationId": "kas-m1_3836003",
		"sStationName": "АЗК-27",
		"sStationAddress": "Шафировский пр., д. 24, литер А",
		"sStationPostal": null,
		"dStationLatitude": 59.988555,
		"dStationLongitude": 30.469503,
		"sCompanyName": "АЗК-27",
		"sStationPhone": "-1170",
		"sStationImage": "images/azk-27.jpg",
		"sStationLabel": "АЗК-27",
		"sStationCategory": "Киришиавтосервис",
		"sStationCity": "Санкт-Петербург",
		"sDepartmentId": "kas-m1_3836003",
		"sSort": 69
	},
	{
		"sStationId": "kas-m1_3836006",
		"sStationName": "АЗК-28",
		"sStationAddress": "Пискаревский пр., д. 135",
		"sStationPostal": null,
		"dStationLatitude": 60.000906,
		"dStationLongitude": 30.44415,
		"sCompanyName": "АЗК-28",
		"sStationPhone": "-1194",
		"sStationImage": "images/azk-28_1.jpg",
		"sStationLabel": "АЗК-28",
		"sStationCategory": "Киришиавтосервис",
		"sStationCity": "Санкт-Петербург",
		"sDepartmentId": "kas-m1_3836006",
		"sSort": 70
	},
	{
		"sStationId": "kas-m1_3834553",
		"sStationName": "АЗК-29",
		"sStationAddress": "89 км Мурманского шоссе",
		"sStationPostal": null,
		"dStationLatitude": 59.936369,
		"dStationLongitude": 31.812944,
		"sCompanyName": "АЗК-29",
		"sStationPhone": "8 (931) 207-26-42",
		"sStationImage": "images/azk-29_2.jpg",
		"sStationLabel": "АЗК-29",
		"sStationCategory": "Киришиавтосервис",
		"sStationCity": "\"ЗАО \"\"Шумское\"\"\"",
		"sDepartmentId": "kas-m1_3834553",
		"sSort": 71
	},
	{
		"sStationId": "kas-m1_3836008",
		"sStationName": "АЗК-30",
		"sStationAddress": "пос. Шушары, Пулковское шоссе, д. 110, лит. А",
		"sStationPostal": null,
		"dStationLatitude": 59.753112,
		"dStationLongitude": 30.320081,
		"sCompanyName": "АЗК-30",
		"sStationPhone": "8 (921) 435-43-59",
		"sStationImage": "images/azk-30_1.jpg",
		"sStationLabel": "АЗК-30",
		"sStationCategory": "Киришиавтосервис",
		"sStationCity": "Санкт-Петербург",
		"sDepartmentId": "kas-m1_3836008",
		"sSort": 72
	},
	{
		"sStationId": "kas-m1_28",
		"sStationName": "АЗК-31",
		"sStationAddress": "Витебский пр., д. 153",
		"sStationPostal": null,
		"dStationLatitude": 59.79367,
		"dStationLongitude": 30.39136,
		"sCompanyName": "АЗК-31",
		"sStationPhone": "8 (921) 311-78-35",
		"sStationImage": "images/azk-31_1.jpg",
		"sStationLabel": "АЗК-31",
		"sStationCategory": "Киришиавтосервис",
		"sStationCity": "Санкт-Петербург",
		"sDepartmentId": "kas-m1_28",
		"sSort": 73
	},
	{
		"sStationId": "kas-m1_52194",
		"sStationName": "АЗК-32",
		"sStationAddress": "км 84+400 (справа)",
		"sStationPostal": null,
		"dStationLatitude": 59.935398,
		"dStationLongitude": 31.736472,
		"sCompanyName": "АЗК-32",
		"sStationPhone": "+7(921)361-08-28",
		"sStationImage": "images/azk-32_2.jpg",
		"sStationLabel": "АЗК-32",
		"sStationCategory": "Киришиавтосервис",
		"sStationCity": "д. Дусьево",
		"sDepartmentId": "kas-m1_52194",
		"sSort": 74
	},
	{
		"sStationId": "kas-m1_704",
		"sStationName": "АЗК-33",
		"sStationAddress": null,
		"sStationPostal": null,
		"dStationLatitude": 59.347479,
		"dStationLongitude": 34.863643,
		"sCompanyName": "АЗК-33",
		"sStationPhone": "-1451",
		"sStationImage": "images/azk-33.jpg",
		"sStationLabel": "АЗК-33",
		"sStationCategory": "Киришиавтосервис",
		"sStationCity": "с. Сомино",
		"sDepartmentId": "kas-m1_704",
		"sSort": 75
	},
	{
		"sStationId": "kas-m1_58841",
		"sStationName": "АЗС-5",
		"sStationAddress": "пер. Челиева, д. 14, литер А",
		"sStationPostal": null,
		"dStationLatitude": 59.889852,
		"dStationLongitude": 30.475427,
		"sCompanyName": "АЗС-5",
		"sStationPhone": "331-77-32",
		"sStationImage": "images/azs-5.jpg",
		"sStationLabel": "АЗС-5",
		"sStationCategory": "Киришиавтосервис",
		"sStationCity": "Санкт-Петербург",
		"sDepartmentId": "kas-m1_58841",
		"sSort": 76
	},
	{
		"sStationId": "kas-m1_3828328",
		"sStationName": "АЗС-21",
		"sStationAddress": "ул. Финляндская, д. 30, корп. 2, литер А",
		"sStationPostal": "196650",
		"dStationLatitude": 59.752829,
		"dStationLongitude": 30.551291,
		"sCompanyName": "АЗС-21",
		"sStationPhone": "+7 812 (328-79-15)",
		"sStationImage": "images/oilstation.jpg",
		"sStationLabel": "АЗС-21",
		"sStationCategory": "Киришиавтосервис",
		"sStationCity": "г. Колпино",
		"sDepartmentId": "kas-m1_3828328",
		"sSort": 77
	},
	{
		"sStationId": "kas-m1_3828888",
		"sStationName": "АЗС-200",
		"sStationAddress": "ул. Привокзальная, д. 18, лит. Д",
		"sStationPostal": null,
		"dStationLatitude": 59.734617,
		"dStationLongitude": 30.098631,
		"sCompanyName": "АЗС-200",
		"sStationPhone": "741-41-11",
		"sStationImage": "images/azs-200_2.jpg",
		"sStationLabel": "АЗС-200",
		"sStationCategory": "Киришиавтосервис",
		"sStationCity": "Красное Село",
		"sDepartmentId": "kas-m1_3828888",
		"sSort": 78
	},
	{
		"sStationId": "kas-m1_3834547",
		"sStationName": "АЗС-201",
		"sStationAddress": "ул. Некрасова, д. 8",
		"sStationPostal": null,
		"dStationLatitude": 59.927675,
		"dStationLongitude": 32.290146,
		"sCompanyName": "АЗС-201",
		"sStationPhone": "8 (81363) 71-802",
		"sStationImage": "images/azs-201_1.jpg",
		"sStationLabel": "АЗС-201",
		"sStationCategory": "Киришиавтосервис",
		"sStationCity": "г. Волхов",
		"sDepartmentId": "kas-m1_3834547",
		"sSort": 79
	},
	{
		"sStationId": "kas-m1_53534",
		"sStationName": "АЗС-212",
		"sStationAddress": "79 км а/д Санкт-Петербург-Псков (слева)",
		"sStationPostal": null,
		"dStationLatitude": 59.3025,
		"dStationLongitude": 29.944167,
		"sCompanyName": "АЗС-212",
		"sStationPhone": "8 (921) 095-07-98",
		"sStationImage": "images/azs-212_1.jpg",
		"sStationLabel": "АЗС-212",
		"sStationCategory": "Киришиавтосервис",
		"sStationCity": "с. Рождествено",
		"sDepartmentId": "kas-m1_53534",
		"sSort": 80
	},
	{
		"sStationId": "kas-m1_53383",
		"sStationName": "АЗС-213",
		"sStationAddress": "пр. Карла Маркса, д. 73",
		"sStationPostal": null,
		"dStationLatitude": 59.380402,
		"dStationLongitude": 28.629671,
		"sCompanyName": "АЗС-213",
		"sStationPhone": "8 (81375) 20-285",
		"sStationImage": "images/azs-213.jpg",
		"sStationLabel": "АЗС-213",
		"sStationCategory": "Киришиавтосервис",
		"sStationCity": "г. Кингисепп",
		"sDepartmentId": "kas-m1_53383",
		"sSort": 81
	},
	{
		"sStationId": "kas-m1_279549",
		"sStationName": "АЗС-214",
		"sStationAddress": "пр. Карла Маркса, д.66",
		"sStationPostal": null,
		"dStationLatitude": 59.380911,
		"dStationLongitude": 28.634112,
		"sCompanyName": "АЗС-214",
		"sStationPhone": "8 (81375) 28-271",
		"sStationImage": "images/azs-214_1.jpg",
		"sStationLabel": "АЗС-214",
		"sStationCategory": "Киришиавтосервис",
		"sStationCity": "г. Кингисепп",
		"sDepartmentId": "kas-m1_279549",
		"sSort": 82
	},
	{
		"sStationId": "kas-m1_2193",
		"sStationName": "АЗС-217",
		"sStationAddress": "шоссе Кириши-СПб (у поста ГАИ)",
		"sStationPostal": null,
		"dStationLatitude": 59.458096,
		"dStationLongitude": 31.974633,
		"sCompanyName": "АЗС-217",
		"sStationPhone": "8 (81368) 22-104",
		"sStationImage": "images/azk_217_1.jpg",
		"sStationLabel": "АЗС-217",
		"sStationCategory": "Киришиавтосервис",
		"sStationCity": "г. Кириши",
		"sDepartmentId": "kas-m1_2193",
		"sSort": 83
	},
	{
		"sStationId": "kas-m1_3836013",
		"sStationName": "АЗС-219",
		"sStationAddress": "ул. Железнодорожная, д. 5",
		"sStationPostal": null,
		"dStationLatitude": 60.725957,
		"dStationLongitude": 33.585309,
		"sCompanyName": "АЗС-219",
		"sStationPhone": "8 (81364) 22-413",
		"sStationImage": "images/azs-219_3.jpg",
		"sStationLabel": "АЗС-219",
		"sStationCategory": "Киришиавтосервис",
		"sStationCity": "г. Лодейное Поле",
		"sDepartmentId": "kas-m1_3836013",
		"sSort": 84
	},
	{
		"sStationId": "kas-m1_3828330",
		"sStationName": "АЗС-220",
		"sStationAddress": "пр. Кирова",
		"sStationPostal": null,
		"dStationLatitude": 60.904245,
		"dStationLongitude": 34.150247,
		"sCompanyName": "АЗС-220",
		"sStationPhone": "8 (81365) 21-402",
		"sStationImage": "images/azs-220_2.jpg",
		"sStationLabel": "АЗС-220",
		"sStationCategory": "Киришиавтосервис",
		"sStationCity": "г. Подпорожье",
		"sDepartmentId": "kas-m1_3828330",
		"sSort": 85
	},
	{
		"sStationId": "kas-m1_21111",
		"sStationName": "АЗС-221",
		"sStationAddress": "Лодейнопольское шоссе, д. 38",
		"sStationPostal": null,
		"dStationLatitude": 60.426603,
		"dStationLongitude": 33.860482,
		"sCompanyName": "АЗС-221",
		"sStationPhone": "(81364) 31165",
		"sStationImage": "images/oilstation.jpg",
		"sStationLabel": "АЗС-221",
		"sStationCategory": "Киришиавтосервис",
		"sStationCity": "Алеховщинская волость",
		"sDepartmentId": "kas-m1_21111",
		"sSort": 86
	},
	{
		"sStationId": "kas-m1_3836015",
		"sStationName": "АЗС-222",
		"sStationAddress": "Ленинградское шоссе",
		"sStationPostal": null,
		"dStationLatitude": 60.726839,
		"dStationLongitude": 33.473472,
		"sCompanyName": "АЗС-222",
		"sStationPhone": "(81364)22-533",
		"sStationImage": "images/azs-222_1.jpg",
		"sStationLabel": "АЗС-222",
		"sStationCategory": "Киришиавтосервис",
		"sStationCity": "г. Лодейное Поле",
		"sDepartmentId": "kas-m1_3836015",
		"sSort": 87
	},
	{
		"sStationId": "kas-m1_3834541",
		"sStationName": "АЗС-223",
		"sStationAddress": "ул. Свободы, д 44",
		"sStationPostal": null,
		"dStationLatitude": 58.741009,
		"dStationLongitude": 29.828157,
		"sCompanyName": "АЗС-223",
		"sStationPhone": "8 (81372) 22-667",
		"sStationImage": "images/azs-223_1.jpg",
		"sStationLabel": "АЗС-223",
		"sStationCategory": "Киришиавтосервис",
		"sStationCity": "г. Луга",
		"sDepartmentId": "kas-m1_3834541",
		"sSort": 88
	},
	{
		"sStationId": "kas-m1_3834543",
		"sStationName": "АЗС-224",
		"sStationAddress": "Ленинградское шоссе, д. 32-а",
		"sStationPostal": null,
		"dStationLatitude": 58.772604,
		"dStationLongitude": 29.872456,
		"sCompanyName": "АЗС-224",
		"sStationPhone": "8 (81372) 22-819",
		"sStationImage": "images/azs-224_1.jpg",
		"sStationLabel": "АЗС-224",
		"sStationCategory": "Киришиавтосервис",
		"sStationCity": "г. Луга",
		"sDepartmentId": "kas-m1_3834543",
		"sSort": 89
	},
	{
		"sStationId": "kas-m1_58846",
		"sStationName": "АЗС-225",
		"sStationAddress": "ул. Пантелеевская, д. 1",
		"sStationPostal": null,
		"dStationLatitude": 58.810617,
		"dStationLongitude": 30.332067,
		"sCompanyName": "АЗС-225",
		"sStationPhone": "8 (81372) 77-280",
		"sStationImage": "images/oilstation.jpg",
		"sStationLabel": "АЗС-225",
		"sStationCategory": "Киришиавтосервис",
		"sStationCity": "п. Оредеж",
		"sDepartmentId": "kas-m1_58846",
		"sSort": 90
	},
	{
		"sStationId": "kas-m1_53625",
		"sStationName": "АЗС-227",
		"sStationAddress": "Гатчинское шоссе",
		"sStationPostal": null,
		"dStationLatitude": 59.45514,
		"dStationLongitude": 29.506174,
		"sCompanyName": "АЗС-227",
		"sStationPhone": "8 (81373) 23-564",
		"sStationImage": "images/azs-227_3.jpg",
		"sStationLabel": "АЗС-227",
		"sStationCategory": "Киришиавтосервис",
		"sStationCity": "Волосовский р-н",
		"sDepartmentId": "kas-m1_53625",
		"sSort": 91
	},
	{
		"sStationId": "kas-m1_33561",
		"sStationName": "АЗС-228",
		"sStationAddress": "Бегуницкая волость, д. Кайкино",
		"sStationPostal": null,
		"dStationLatitude": 59.585767,
		"dStationLongitude": 29.341317,
		"sCompanyName": "АЗС-228",
		"sStationPhone": "8 (81373) 51-556",
		"sStationImage": "images/oilstation.jpg",
		"sStationLabel": "АЗС-228",
		"sStationCategory": "Киришиавтосервис",
		"sStationCity": "Волосовский р-н",
		"sDepartmentId": "kas-m1_33561",
		"sSort": 92
	},
	{
		"sStationId": "kas-m1_39846",
		"sStationName": "АЗС-229",
		"sStationAddress": "ул. Чапаева, д. 13",
		"sStationPostal": null,
		"dStationLatitude": 61.033026,
		"dStationLongitude": 30.135055,
		"sCompanyName": "АЗС-229",
		"sStationPhone": "8 (81379) 37-288",
		"sStationImage": "images/oilstation.jpg",
		"sStationLabel": "АЗС-229",
		"sStationCategory": "Киришиавтосервис",
		"sStationCity": "г. Приозерск",
		"sDepartmentId": "kas-m1_39846",
		"sSort": 93
	},
	{
		"sStationId": "kas-m1_3829807",
		"sStationName": "АЗС-230",
		"sStationAddress": "ул. Приозерское шоссе, д. 1-а",
		"sStationPostal": null,
		"dStationLatitude": 60.546158,
		"dStationLongitude": 30.192476,
		"sCompanyName": "АЗС-230",
		"sStationPhone": "8 (921) 311-75-69",
		"sStationImage": "images/azs-230_1.jpg",
		"sStationLabel": "АЗС-230",
		"sStationCategory": "Киришиавтосервис",
		"sStationCity": "д. Раздолье",
		"sDepartmentId": "kas-m1_3829807",
		"sSort": 94
	},
	{
		"sStationId": "kas-m1_3834539",
		"sStationName": "АЗС-231",
		"sStationAddress": "Леншоссе, д. 80",
		"sStationPostal": null,
		"dStationLatitude": 61.019283,
		"dStationLongitude": 30.134969,
		"sCompanyName": "АЗС-231",
		"sStationPhone": "8 (81379) 35-252",
		"sStationImage": "images/azs-231_2.jpg",
		"sStationLabel": "АЗС-231",
		"sStationCategory": "Киришиавтосервис",
		"sStationCity": "г. Приозерск",
		"sDepartmentId": "kas-m1_3834539",
		"sSort": 95
	},
	{
		"sStationId": "kas-m1_3828273",
		"sStationName": "АЗС-232",
		"sStationAddress": "Сланцевское шоссе",
		"sStationPostal": null,
		"dStationLatitude": 59.104033,
		"dStationLongitude": 28.13125,
		"sCompanyName": "АЗС-232",
		"sStationPhone": "8 (81374) 23-766",
		"sStationImage": "images/azs-232_1.jpg",
		"sStationLabel": "АЗС-232",
		"sStationCategory": "Киришиавтосервис",
		"sStationCity": "г. Сланцы",
		"sDepartmentId": "kas-m1_3828273",
		"sSort": 96
	},
	{
		"sStationId": "kas-m1_153160",
		"sStationName": "АЗС-233",
		"sStationAddress": "Сланцевское шоссе",
		"sStationPostal": null,
		"dStationLatitude": 59.1047,
		"dStationLongitude": 28.108867,
		"sCompanyName": "АЗС-233",
		"sStationPhone": "8 (81374) 22-071",
		"sStationImage": "images/oilstation.jpg",
		"sStationLabel": "АЗС-233",
		"sStationCategory": "Киришиавтосервис",
		"sStationCity": "г. Сланцы",
		"sDepartmentId": "kas-m1_153160",
		"sSort": 97
	},
	{
		"sStationId": "kas-m1_58851",
		"sStationName": "АЗС-235",
		"sStationAddress": "пер. Тихвинский, д. 13",
		"sStationPostal": null,
		"dStationLatitude": 59.925878,
		"dStationLongitude": 34.211225,
		"sCompanyName": "АЗС-235",
		"sStationPhone": "8 (81367) 44-159",
		"sStationImage": "images/oilstation.jpg",
		"sStationLabel": "АЗС-235",
		"sStationCategory": "Киришиавтосервис",
		"sStationCity": "п. Шугозеро",
		"sDepartmentId": "kas-m1_58851",
		"sSort": 98
	},
	{
		"sStationId": "kas-m1_3830215",
		"sStationName": "АЗС-237",
		"sStationAddress": "ул. Школьная, д. 3",
		"sStationPostal": null,
		"dStationLatitude": 59.638017,
		"dStationLongitude": 33.517017,
		"sCompanyName": "АЗС-237",
		"sStationPhone": "8 (81367) 53-961",
		"sStationImage": "images/azk-237_2.jpg",
		"sStationLabel": "АЗС-237",
		"sStationCategory": "Киришиавтосервис",
		"sStationCity": "г. Тихвин",
		"sDepartmentId": "kas-m1_3830215",
		"sSort": 99
	},
	{
		"sStationId": "kas-m1_246433",
		"sStationName": "АЗС-238",
		"sStationAddress": "ул. Советская, д. 150",
		"sStationPostal": null,
		"dStationLatitude": 59.669967,
		"dStationLongitude": 33.500967,
		"sCompanyName": "АЗС-238",
		"sStationPhone": "8 (81367) 51-539",
		"sStationImage": "images/azs-238_1.jpg",
		"sStationLabel": "АЗС-238",
		"sStationCategory": "Киришиавтосервис",
		"sStationCity": "г. Тихвин",
		"sDepartmentId": "kas-m1_246433",
		"sSort": 100
	},
	{
		"sStationId": "kas-m1_3830217",
		"sStationName": "АЗС-239",
		"sStationAddress": "Дымское шоссе",
		"sStationPostal": null,
		"dStationLatitude": 59.477845,
		"dStationLongitude": 33.833811,
		"sCompanyName": "АЗС-239",
		"sStationPhone": "8 (81366) 21-002",
		"sStationImage": "images/azs-239_1.jpg",
		"sStationLabel": "АЗС-239",
		"sStationCategory": "Киришиавтосервис",
		"sStationCity": "г. Бокситогорск",
		"sDepartmentId": "kas-m1_3830217",
		"sSort": 101
	},
	{
		"sStationId": "kas-m1_3828332",
		"sStationName": "АЗС-243",
		"sStationAddress": "ул. Родниковая, д. 2",
		"sStationPostal": null,
		"dStationLatitude": 60.906251,
		"dStationLongitude": 34.146127,
		"sCompanyName": "АЗС-243",
		"sStationPhone": "(81365) 50242",
		"sStationImage": "images/azs-243_2.jpg",
		"sStationLabel": "АЗС-243",
		"sStationCategory": "Киришиавтосервис",
		"sStationCity": "г. Подпорожье",
		"sDepartmentId": "kas-m1_3828332",
		"sSort": 102
	},
	{
		"sStationId": "kas-m1_3836018",
		"sStationName": "АЗС-245",
		"sStationAddress": "а/д СПб-Мурманск, 232 км + 450м (слева)",
		"sStationPostal": null,
		"dStationLatitude": 60.718467,
		"dStationLongitude": 33.62675,
		"sCompanyName": "АЗС-245",
		"sStationPhone": "8 (921) 311-74-17",
		"sStationImage": "images/azs-245_1.jpg",
		"sStationLabel": "АЗС-245",
		"sStationCategory": "Киришиавтосервис",
		"sStationCity": "Лодейнопольский р-н",
		"sDepartmentId": "kas-m1_3836018",
		"sSort": 103
	},
	{
		"sStationId": "kas-m1_3834549",
		"sStationName": "АЗС-247",
		"sStationAddress": "ул. Новоладожское шоссе, д. 5",
		"sStationPostal": null,
		"dStationLatitude": 59.923582,
		"dStationLongitude": 32.322396,
		"sCompanyName": "АЗС-247",
		"sStationPhone": "8 (81363) 71-753",
		"sStationImage": "images/oilstation.jpg",
		"sStationLabel": "АЗС-247",
		"sStationCategory": "Киришиавтосервис",
		"sStationCity": "г. Волхов",
		"sDepartmentId": "kas-m1_3834549",
		"sSort": 104
	},
	{
		"sStationId": "kas-m1_3830219",
		"sStationName": "АЗС-248",
		"sStationAddress": "ул. Песочная, д. 2",
		"sStationPostal": null,
		"dStationLatitude": 59.695267,
		"dStationLongitude": 33.0802,
		"sCompanyName": "АЗС-248",
		"sStationPhone": "8 (921) 435-45-29",
		"sStationImage": "images/azs-248_1.jpg",
		"sStationLabel": "АЗС-248",
		"sStationCategory": "Киришиавтосервис",
		"sStationCity": "д. Сугорово",
		"sDepartmentId": "kas-m1_3830219",
		"sSort": 105
	},
	{
		"sStationId": "kas-m1_58853",
		"sStationName": "АЗС-249",
		"sStationAddress": "-",
		"sStationPostal": null,
		"dStationLatitude": 60.992703,
		"dStationLongitude": 35.462083,
		"sCompanyName": "АЗС-249",
		"sStationPhone": "8 (81365) 42-314",
		"sStationImage": "images/oilstation.jpg",
		"sStationLabel": "АЗС-249",
		"sStationCategory": "Киришиавтосервис",
		"sStationCity": "г.п. Вознесенье",
		"sDepartmentId": "kas-m1_58853",
		"sSort": 106
	},
	{
		"sStationId": "kas-m1_27372",
		"sStationName": "АЗС-262",
		"sStationAddress": null,
		"sStationPostal": null,
		"dStationLatitude": 59.77795,
		"dStationLongitude": 28.4741,
		"sCompanyName": "АЗС-262",
		"sStationPhone": "8 (81375) 67-150",
		"sStationImage": "images/oilstation.jpg",
		"sStationLabel": "АЗС-262",
		"sStationCategory": "Киришиавтосервис",
		"sStationCity": "д. Вистино",
		"sDepartmentId": "kas-m1_27372",
		"sSort": 107
	},
	{
		"sStationId": "kas-m1_39840",
		"sStationName": "АЗС-263",
		"sStationAddress": null,
		"sStationPostal": null,
		"dStationLatitude": 60.067867,
		"dStationLongitude": 32.320359,
		"sCompanyName": "АЗС-263",
		"sStationPhone": "8 (81363) 31-972",
		"sStationImage": "images/azs-263_1.jpg",
		"sStationLabel": "АЗС-263",
		"sStationCategory": "Киришиавтосервис",
		"sStationCity": "д. Юшково",
		"sDepartmentId": "kas-m1_39840",
		"sSort": 108
	},
	{
		"sStationId": "kas-m1_17778",
		"sStationName": "АЗС-264",
		"sStationAddress": "шоссе Энтузиастов",
		"sStationPostal": null,
		"dStationLatitude": 59.475133,
		"dStationLongitude": 32.044917,
		"sCompanyName": "АЗС-264",
		"sStationPhone": "8 (81368) 91-286",
		"sStationImage": "images/azk_264_1.jpg",
		"sStationLabel": "АЗС-264",
		"sStationCategory": "Киришиавтосервис",
		"sStationCity": "г. Кириши",
		"sDepartmentId": "kas-m1_17778",
		"sSort": 109
	},
	{
		"sStationId": "kas-m1_3834545",
		"sStationName": "АЗС-265",
		"sStationAddress": "ул. Строителей, д. 56",
		"sStationPostal": null,
		"dStationLatitude": 59.438491,
		"dStationLongitude": 32.022216,
		"sCompanyName": "АЗС-265",
		"sStationPhone": "8 (81368) 30-673",
		"sStationImage": "images/azk-265_1.jpg",
		"sStationLabel": "АЗС-265",
		"sStationCategory": "Киришиавтосервис",
		"sStationCity": "г. Кириши",
		"sDepartmentId": "kas-m1_3834545",
		"sSort": 110
	},
	{
		"sStationId": "kas-m1_168",
		"sStationName": "АЗСМ-12",
		"sStationAddress": "Фермское шоссе, д. 35",
		"sStationPostal": null,
		"dStationLatitude": 60.016432,
		"dStationLongitude": 30.313272,
		"sCompanyName": "АЗСМ-12",
		"sStationPhone": "301-31-22/ +7-931-207-69-20",
		"sStationImage": "images/azsm-12_1.jpg",
		"sStationLabel": "АЗСМ-12",
		"sStationCategory": "Киришиавтосервис",
		"sStationCity": "Санкт-Петербург",
		"sDepartmentId": "kas-m1_168",
		"sSort": 111
	},
	{
		"sStationId": "kas-m1_2986",
		"sStationName": "КАЗС-2",
		"sStationAddress": "ш. Энтузиастов, Северная промзона",
		"sStationPostal": null,
		"dStationLatitude": 59.492,
		"dStationLongitude": 32.058567,
		"sCompanyName": "КАЗС-2",
		"sStationPhone": "8 (81368) 97-003",
		"sStationImage": "images/oilstation.jpg",
		"sStationLabel": "КАЗС-2",
		"sStationCategory": "Киришиавтосервис",
		"sStationCity": "г. Кириши",
		"sDepartmentId": "kas-m1_2986",
		"sSort": 112
	},
	{
		"sStationId": "nnp-m1_135",
		"sStationName": "АГЗС № 01",
		"sStationAddress": "Лужское ш., 6",
		"sStationPostal": null,
		"dStationLatitude": 58.578704,
		"dStationLongitude": 31.277292,
		"sCompanyName": "АГЗС № 01",
		"sStationPhone": "+7 (8162) 64-41-06",
		"sStationImage": "images/oilstation.jpg",
		"sStationLabel": "АГЗС № 01",
		"sStationCategory": "Новгороднефтепродукт",
		"sStationCity": "Великий Новгород",
		"sDepartmentId": "nnp-m1_135",
		"sSort": 113
	},
	{
		"sStationId": "nnp-m1_141",
		"sStationName": "АГЗС № 02",
		"sStationAddress": "Ржевская ул., 20",
		"sStationPostal": null,
		"dStationLatitude": 58.380592,
		"dStationLongitude": 33.879809,
		"sCompanyName": "АГЗС № 02",
		"sStationPhone": "+7 (921) 190-42-64",
		"sStationImage": "images/oilstation.jpg",
		"sStationLabel": "АГЗС № 02",
		"sStationCategory": "Новгороднефтепродукт",
		"sStationCity": "Боровичи",
		"sDepartmentId": "nnp-m1_141",
		"sSort": 114
	},
	{
		"sStationId": "nnp-m1_185",
		"sStationName": "АГЗС № 03",
		"sStationAddress": "ул. Строителей, 3А",
		"sStationPostal": null,
		"dStationLatitude": 58.00275,
		"dStationLongitude": 31.324691,
		"sCompanyName": "АГЗС № 03",
		"sStationPhone": "+7 (81652) 5-35-25",
		"sStationImage": "images/oilstation.jpg",
		"sStationLabel": "АГЗС № 03",
		"sStationCategory": "Новгороднефтепродукт",
		"sStationCity": "Старая Русса",
		"sDepartmentId": "nnp-m1_185",
		"sSort": 115
	},
	{
		"sStationId": "nnp-m1_101",
		"sStationName": "АГЗС № 04",
		"sStationAddress": "Валдайская ул., 56В",
		"sStationPostal": null,
		"dStationLatitude": 58.252656,
		"dStationLongitude": 32.541075,
		"sCompanyName": "АГЗС № 04",
		"sStationPhone": null,
		"sStationImage": "images/oilstation.jpg",
		"sStationLabel": "АГЗС № 04",
		"sStationCategory": "Новгороднефтепродукт",
		"sStationCity": "п. г. т. Крестцы",
		"sDepartmentId": "nnp-m1_101",
		"sSort": 116
	},
	{
		"sStationId": "nnp-m1_187",
		"sStationName": "АГЗС № 05",
		"sStationAddress": "просп. Васильева, 98",
		"sStationPostal": null,
		"dStationLatitude": 57.989642,
		"dStationLongitude": 33.20701,
		"sCompanyName": "АГЗС № 05",
		"sStationPhone": "+7 (8162) 77-10-10",
		"sStationImage": "images/oilstation.jpg",
		"sStationLabel": "АГЗС № 05",
		"sStationCategory": "Новгороднефтепродукт",
		"sStationCity": "Валдай",
		"sDepartmentId": "nnp-m1_187",
		"sSort": 117
	},
	{
		"sStationId": "nnp-m1_103",
		"sStationName": "АЗС 2",
		"sStationAddress": "ул. Павла Левитта, 15А",
		"sStationPostal": null,
		"dStationLatitude": 58.555351,
		"dStationLongitude": 31.273508,
		"sCompanyName": "АЗС 2",
		"sStationPhone": "+7 (8162) 64-21-60",
		"sStationImage": "images/oilstation.jpg",
		"sStationLabel": "АЗС 2",
		"sStationCategory": "Новгороднефтепродукт",
		"sStationCity": "Великий Новгород",
		"sDepartmentId": "nnp-m1_103",
		"sSort": 118
	},
	{
		"sStationId": "nnp-m1_105",
		"sStationName": "АЗС 3",
		"sStationAddress": "Большая Московская улица, 44",
		"sStationPostal": null,
		"dStationLatitude": 58.522876,
		"dStationLongitude": 31.290253,
		"sCompanyName": "АЗС 3",
		"sStationPhone": "+7 921-208-58-28",
		"sStationImage": "images/oilstation.jpg",
		"sStationLabel": "АЗС 3",
		"sStationCategory": "Новгороднефтепродукт",
		"sStationCity": "Великий Новгород",
		"sDepartmentId": "nnp-m1_105",
		"sSort": 119
	},
	{
		"sStationId": "nnp-m1_107",
		"sStationName": "АЗС 4",
		"sStationAddress": "ул. Бронницкая",
		"sStationPostal": null,
		"dStationLatitude": 58.454176,
		"dStationLongitude": 31.660853,
		"sCompanyName": "АЗС 4",
		"sStationPhone": "+7 (8162) 74-91-48",
		"sStationImage": "images/oilstation.jpg",
		"sStationLabel": "АЗС 4",
		"sStationCategory": "Новгороднефтепродукт",
		"sStationCity": "с. Бронница",
		"sDepartmentId": "nnp-m1_107",
		"sSort": 120
	},
	{
		"sStationId": "nnp-m1_139",
		"sStationName": "АЗС 6",
		"sStationAddress": "ул. Советская",
		"sStationPostal": null,
		"dStationLatitude": 58.39487,
		"dStationLongitude": 33.943831,
		"sCompanyName": "АЗС 6",
		"sStationPhone": "+7 (921) 190 41-53",
		"sStationImage": "images/oilstation.jpg",
		"sStationLabel": "АЗС 6",
		"sStationCategory": "Новгороднефтепродукт",
		"sStationCity": "г. Боровичи",
		"sDepartmentId": "nnp-m1_139",
		"sSort": 121
	},
	{
		"sStationId": "nnp-m1_137",
		"sStationName": "АЗС 7",
		"sStationAddress": "ул. Локомотивная",
		"sStationPostal": null,
		"dStationLatitude": 58.893274,
		"dStationLongitude": 34.485318,
		"sCompanyName": "АЗС 7",
		"sStationPhone": "+7 (921) 699 41-37",
		"sStationImage": "images/azs-245_1.jpg",
		"sStationLabel": "АЗС 7",
		"sStationCategory": "Новгороднефтепродукт",
		"sStationCity": "п. Хвойная",
		"sDepartmentId": "nnp-m1_137",
		"sSort": 122
	},
	{
		"sStationId": "nnp-m1_189",
		"sStationName": "АЗС 8",
		"sStationAddress": "ул. 25 Октября",
		"sStationPostal": null,
		"dStationLatitude": 57.650652,
		"dStationLongitude": 32.468851,
		"sCompanyName": "АЗС 8",
		"sStationPhone": "+7 (81651) 42-269",
		"sStationImage": "images/oilstation.jpg",
		"sStationLabel": "АЗС 8",
		"sStationCategory": "Новгороднефтепродукт",
		"sStationCity": "п. Демянск",
		"sDepartmentId": "nnp-m1_189",
		"sSort": 123
	},
	{
		"sStationId": "nnp-m1_191",
		"sStationName": "АЗС 9",
		"sStationAddress": "581 км автодороги «Россия»",
		"sStationPostal": null,
		"dStationLatitude": 59.12119,
		"dStationLongitude": 31.670285,
		"sCompanyName": "АЗС 9",
		"sStationPhone": "+7 (921) 020 86-70",
		"sStationImage": "images/oilstation.jpg",
		"sStationLabel": "АЗС 9",
		"sStationCategory": "Новгороднефтепродукт",
		"sStationCity": "г. Чудово",
		"sDepartmentId": "nnp-m1_191",
		"sSort": 124
	},
	{
		"sStationId": "nnp-m1_93",
		"sStationName": "АЗС 12",
		"sStationAddress": "442 км автодороги «Россия»",
		"sStationPostal": null,
		"dStationLatitude": 58.246731,
		"dStationLongitude": 32.513587,
		"sCompanyName": "АЗС 12",
		"sStationPhone": "+7 (921) 022 83-53",
		"sStationImage": "images/oilstation.jpg",
		"sStationLabel": "АЗС 12",
		"sStationCategory": "Новгороднефтепродукт",
		"sStationCity": "п. Крестцы",
		"sDepartmentId": "nnp-m1_93",
		"sSort": 125
	},
	{
		"sStationId": "nnp-m1_143",
		"sStationName": "АЗС 13",
		"sStationAddress": "ул. Ленинградская",
		"sStationPostal": null,
		"dStationLatitude": 59.121,
		"dStationLongitude": 33.34214,
		"sCompanyName": "АЗС 13",
		"sStationPhone": "+7 (921) 699 41-43",
		"sStationImage": "images/oilstation.jpg",
		"sStationLabel": "АЗС 13",
		"sStationCategory": "Новгороднефтепродукт",
		"sStationCity": "п. Неболчи",
		"sDepartmentId": "nnp-m1_143",
		"sSort": 126
	},
	{
		"sStationId": "nnp-m1_165",
		"sStationName": "АЗС 14",
		"sStationAddress": "ул. Новгородская",
		"sStationPostal": null,
		"dStationLatitude": 58.125216,
		"dStationLongitude": 30.346788,
		"sCompanyName": "АЗС 14",
		"sStationPhone": "+7 (81655) 3-03-19",
		"sStationImage": "images/oilstation.jpg",
		"sStationLabel": "АЗС 14",
		"sStationCategory": "Новгороднефтепродукт",
		"sStationCity": "г. Сольцы",
		"sDepartmentId": "nnp-m1_165",
		"sSort": 127
	},
	{
		"sStationId": "nnp-m1_81",
		"sStationName": "АЗС 15",
		"sStationAddress": "Колмовская набережная, д.2",
		"sStationPostal": null,
		"dStationLatitude": 58.541386,
		"dStationLongitude": 31.276652,
		"sCompanyName": "АЗС 15",
		"sStationPhone": "+7 (921) 840-10-29",
		"sStationImage": "images/oilstation.jpg",
		"sStationLabel": "АЗС 15",
		"sStationCategory": "Новгороднефтепродукт",
		"sStationCity": "Великий Новгород",
		"sDepartmentId": "nnp-m1_81",
		"sSort": 128
	},
	{
		"sStationId": "nnp-m1_167",
		"sStationName": "АЗС 16",
		"sStationAddress": "ул. Парковая, д.23, корп.2",
		"sStationPostal": null,
		"dStationLatitude": 58.547242,
		"dStationLongitude": 31.295562,
		"sCompanyName": "АЗС 16",
		"sStationPhone": "+7 (8162) 94-89-25",
		"sStationImage": "images/oilstation.jpg",
		"sStationLabel": "АЗС 16",
		"sStationCategory": "Новгороднефтепродукт",
		"sStationCity": "Великий Новгород",
		"sDepartmentId": "nnp-m1_167",
		"sSort": 129
	},
	{
		"sStationId": "nnp-m1_169",
		"sStationName": "АЗС 17",
		"sStationAddress": "ул. Старорусская, д.50",
		"sStationPostal": null,
		"dStationLatitude": 57.159394,
		"dStationLongitude": 31.168064,
		"sCompanyName": "АЗС 17",
		"sStationPhone": "+7 (921) 023 8756",
		"sStationImage": "images/oilstation.jpg",
		"sStationLabel": "АЗС 17",
		"sStationCategory": "Новгороднефтепродукт",
		"sStationCity": "г. Холм",
		"sDepartmentId": "nnp-m1_169",
		"sSort": 130
	},
	{
		"sStationId": "nnp-m1_145",
		"sStationName": "АЗС 19",
		"sStationAddress": "ул. Николаева",
		"sStationPostal": null,
		"dStationLatitude": 58.38368,
		"dStationLongitude": 33.293837,
		"sCompanyName": "АЗС 19",
		"sStationPhone": "+7 (921) 190 41-89",
		"sStationImage": null,
		"sStationLabel": "АЗС 19",
		"sStationCategory": "Новгороднефтепродукт",
		"sStationCity": "Окуловка",
		"sDepartmentId": "nnp-m1_145",
		"sSort": 131
	},
	{
		"sStationId": "nnp-m1_147",
		"sStationName": "АЗС 20",
		"sStationAddress": "ул. Ржевская",
		"sStationPostal": null,
		"dStationLatitude": 58.382954,
		"dStationLongitude": 33.874643,
		"sCompanyName": "АЗС 20",
		"sStationPhone": "+7 (921) 190 42-64",
		"sStationImage": "images/oilstation.jpg",
		"sStationLabel": "АЗС 20",
		"sStationCategory": "Новгороднефтепродукт",
		"sStationCity": "г. Боровичи",
		"sDepartmentId": "nnp-m1_147",
		"sSort": 132
	},
	{
		"sStationId": "nnp-m1_109",
		"sStationName": "АЗС 21",
		"sStationAddress": "586 км автодороги «Россия»",
		"sStationPostal": null,
		"dStationLatitude": 59.138223,
		"dStationLongitude": 31.626097,
		"sCompanyName": "АЗС 21",
		"sStationPhone": "+7 (921) 208 58-16",
		"sStationImage": "images/oilstation.jpg",
		"sStationLabel": "АЗС 21",
		"sStationCategory": "Новгороднефтепродукт",
		"sStationCity": "д. Сябреницы",
		"sDepartmentId": "nnp-m1_109",
		"sSort": 133
	},
	{
		"sStationId": "nnp-m1_171",
		"sStationName": "АЗС 22",
		"sStationAddress": null,
		"sStationPostal": null,
		"dStationLatitude": 57.470327,
		"dStationLongitude": 31.110015,
		"sCompanyName": "АЗС 22",
		"sStationPhone": "+7 (81658) 7-12-20",
		"sStationImage": "images/oilstation.jpg",
		"sStationLabel": "АЗС 22",
		"sStationCategory": "Новгороднефтепродукт",
		"sStationCity": "п. Поддорье",
		"sDepartmentId": "nnp-m1_171",
		"sSort": 134
	},
	{
		"sStationId": "nnp-m1_111",
		"sStationName": "АЗС 23",
		"sStationAddress": null,
		"sStationPostal": null,
		"dStationLatitude": 58.493681,
		"dStationLongitude": 31.202865,
		"sCompanyName": "АЗС 23",
		"sStationPhone": "+7 (921) 195-26-11",
		"sStationImage": "images/oilstation.jpg",
		"sStationLabel": "АЗС 23",
		"sStationCategory": "Новгороднефтепродукт",
		"sStationCity": "п. Панковка",
		"sDepartmentId": "nnp-m1_111",
		"sSort": 135
	},
	{
		"sStationId": "nnp-m1_115",
		"sStationName": "АЗС 24",
		"sStationAddress": "501 км автодороги «Россия»",
		"sStationPostal": null,
		"dStationLatitude": 58.497867,
		"dStationLongitude": 31.709461,
		"sCompanyName": "АЗС 24",
		"sStationPhone": "+7 (921) 208 5824",
		"sStationImage": "images/oilstation.jpg",
		"sStationLabel": "АЗС 24",
		"sStationCategory": "Новгороднефтепродукт",
		"sStationCity": "п. Белая Гора",
		"sDepartmentId": "nnp-m1_115",
		"sSort": 136
	},
	{
		"sStationId": "nnp-m1_87",
		"sStationName": "АЗС 25",
		"sStationAddress": "388 км автодороги «Россия»",
		"sStationPostal": null,
		"dStationLatitude": 57.958435,
		"dStationLongitude": 33.248653,
		"sCompanyName": "АЗС 25",
		"sStationPhone": "+7 (921) 022 85-59",
		"sStationImage": "images/oilstation.jpg",
		"sStationLabel": "АЗС 25",
		"sStationCategory": "Новгороднефтепродукт",
		"sStationCity": "г. Валдай",
		"sDepartmentId": "nnp-m1_87",
		"sSort": 137
	},
	{
		"sStationId": "nnp-m1_149",
		"sStationName": "АЗС 26",
		"sStationAddress": "ул. Мелиораторов, д.1",
		"sStationPostal": null,
		"dStationLatitude": 58.581661,
		"dStationLongitude": 35.764519,
		"sCompanyName": "АЗС 26",
		"sStationPhone": "+7 (921) 190 45-74",
		"sStationImage": null,
		"sStationLabel": "АЗС 26",
		"sStationCategory": "Новгороднефтепродукт",
		"sStationCity": "п. Русское Пестово",
		"sDepartmentId": "nnp-m1_149",
		"sSort": 138
	},
	{
		"sStationId": "nnp-m1_151",
		"sStationName": "АЗС 27",
		"sStationAddress": "ул. Калинина",
		"sStationPostal": null,
		"dStationLatitude": 58.510627,
		"dStationLongitude": 34.583971,
		"sCompanyName": "АЗС 27",
		"sStationPhone": "+7 (921) 699 4146",
		"sStationImage": "images/oilstation.jpg",
		"sStationLabel": "АЗС 27",
		"sStationCategory": "Новгороднефтепродукт",
		"sStationCity": "с. Мошенское",
		"sDepartmentId": "nnp-m1_151",
		"sSort": 139
	},
	{
		"sStationId": "nnp-m1_113",
		"sStationName": "АЗС 28",
		"sStationAddress": "537 км автодороги «Россия»",
		"sStationPostal": null,
		"dStationLatitude": 58.723407,
		"dStationLongitude": 31.409872,
		"sCompanyName": "АЗС 28",
		"sStationPhone": "7 (8162) 74-25-66",
		"sStationImage": "images/oilstation.jpg",
		"sStationLabel": "АЗС 28",
		"sStationCategory": "Новгороднефтепродукт",
		"sStationCity": "д. Тютицы",
		"sDepartmentId": "nnp-m1_113",
		"sSort": 140
	},
	{
		"sStationId": "nnp-m1_95",
		"sStationName": "АЗС 29",
		"sStationAddress": "479 км автодороги «Россия»",
		"sStationPostal": null,
		"dStationLatitude": 58.385133,
		"dStationLongitude": 31.981003,
		"sCompanyName": "АЗС 29",
		"sStationPhone": "+7 (921) 022 85-30",
		"sStationImage": "images/oilstation.jpg",
		"sStationLabel": "АЗС 29",
		"sStationCategory": "Новгороднефтепродукт",
		"sStationCity": "д. Первомайское",
		"sDepartmentId": "nnp-m1_95",
		"sSort": 141
	},
	{
		"sStationId": "nnp-m1_117",
		"sStationName": "АЗС 30",
		"sStationAddress": "ул. Державина, д.23",
		"sStationPostal": null,
		"dStationLatitude": 58.535965,
		"dStationLongitude": 31.327605,
		"sCompanyName": "АЗС 30",
		"sStationPhone": "+7 (8162) 74-99-75",
		"sStationImage": "images/oilstation.jpg",
		"sStationLabel": "АЗС 30",
		"sStationCategory": "Новгороднефтепродукт",
		"sStationCity": "Великий Новгород",
		"sDepartmentId": "nnp-m1_117",
		"sSort": 142
	},
	{
		"sStationId": "nnp-m1_173",
		"sStationName": "АЗС 31",
		"sStationAddress": "дер. Анишино",
		"sStationPostal": null,
		"dStationLatitude": 57.999554,
		"dStationLongitude": 31.455318,
		"sCompanyName": "АЗС 31",
		"sStationPhone": "+7 (81652) 5-61-72",
		"sStationImage": "images/oilstation.jpg",
		"sStationLabel": "АЗС 31",
		"sStationCategory": "Новгороднефтепродукт",
		"sStationCity": "Старорусский р-н",
		"sDepartmentId": "nnp-m1_173",
		"sSort": 143
	},
	{
		"sStationId": "nnp-m1_175",
		"sStationName": "АЗС 32",
		"sStationAddress": null,
		"sStationPostal": null,
		"dStationLatitude": 57.96292,
		"dStationLongitude": 31.646138,
		"sCompanyName": "АЗС 32",
		"sStationPhone": "+7 (81650) 6-13-95",
		"sStationImage": "images/oilstation.jpg",
		"sStationLabel": "АЗС 32",
		"sStationCategory": "Новгороднефтепродукт",
		"sStationCity": "п. Парфино",
		"sDepartmentId": "nnp-m1_175",
		"sSort": 144
	},
	{
		"sStationId": "nnp-m1_153",
		"sStationName": "АЗС 33",
		"sStationAddress": "ул. Магистральная",
		"sStationPostal": null,
		"dStationLatitude": 58.807941,
		"dStationLongitude": 33.405345,
		"sCompanyName": "АЗС 33",
		"sStationPhone": "+7 (921) 699 41-48",
		"sStationImage": "images/oilstation.jpg",
		"sStationLabel": "АЗС 33",
		"sStationCategory": "Новгороднефтепродукт",
		"sStationCity": "Большой Городок",
		"sDepartmentId": "nnp-m1_153",
		"sSort": 145
	},
	{
		"sStationId": "nnp-m1_119",
		"sStationName": "АЗС 34",
		"sStationAddress": "Лужское ш. д.19",
		"sStationPostal": null,
		"dStationLatitude": 58.58388,
		"dStationLongitude": 31.249236,
		"sCompanyName": "АЗС 34",
		"sStationPhone": "+7 (8162) 700-204",
		"sStationImage": "images/oilstation.jpg",
		"sStationLabel": "АЗС 34",
		"sStationCategory": "Новгороднефтепродукт",
		"sStationCity": "Великий Новгород",
		"sDepartmentId": "nnp-m1_119",
		"sSort": 146
	},
	{
		"sStationId": "nnp-m1_121",
		"sStationName": "АЗС 35",
		"sStationAddress": "510 км автодороги «Россия»",
		"sStationPostal": null,
		"dStationLatitude": 58.520305,
		"dStationLongitude": 31.697971,
		"sCompanyName": "АЗС 35",
		"sStationPhone": "+7 (921) 208 5822",
		"sStationImage": "images/oilstation.jpg",
		"sStationLabel": "АЗС 35",
		"sStationCategory": "Новгороднефтепродукт",
		"sStationCity": "д. Новоселицы",
		"sDepartmentId": "nnp-m1_121",
		"sSort": 147
	},
	{
		"sStationId": "nnp-m1_91",
		"sStationName": "АЗС 36",
		"sStationAddress": "ул. Октябрьская, д.57",
		"sStationPostal": null,
		"dStationLatitude": 57.972568,
		"dStationLongitude": 33.242822,
		"sCompanyName": "АЗС 36",
		"sStationPhone": "+7 (921) 022 82-50",
		"sStationImage": "images/oilstation.jpg",
		"sStationLabel": "АЗС 36",
		"sStationCategory": "Новгороднефтепродукт",
		"sStationCity": "г. Валдай",
		"sDepartmentId": "nnp-m1_91",
		"sSort": 148
	},
	{
		"sStationId": "nnp-m1_155",
		"sStationName": "АЗС 38",
		"sStationAddress": "д. Волгино (контейнерная)",
		"sStationPostal": null,
		"dStationLatitude": 58.446354,
		"dStationLongitude": 33.867115,
		"sCompanyName": "АЗС 38",
		"sStationPhone": "+7 (921) 190 46-41",
		"sStationImage": "images/oilstation.jpg",
		"sStationLabel": "АЗС 38",
		"sStationCategory": "Новгороднефтепродукт",
		"sStationCity": "г. Боровичи",
		"sDepartmentId": "nnp-m1_155",
		"sSort": 149
	},
	{
		"sStationId": "nnp-m1_157",
		"sStationName": "АЗС 41",
		"sStationAddress": "(контейнерная)",
		"sStationPostal": null,
		"dStationLatitude": 58.214007,
		"dStationLongitude": 33.517688,
		"sCompanyName": "АЗС 41",
		"sStationPhone": "+7 (81657) 94-149",
		"sStationImage": null,
		"sStationLabel": "АЗС 41",
		"sStationCategory": "Новгороднефтепродукт",
		"sStationCity": "п. Угловка",
		"sDepartmentId": "nnp-m1_157",
		"sSort": 150
	},
	{
		"sStationId": "nnp-m1_85",
		"sStationName": "АЗС 42",
		"sStationAddress": "\"459км. автодороги \"\"Россия\"\"\"",
		"sStationPostal": null,
		"dStationLatitude": 58.325096,
		"dStationLongitude": 32.322579,
		"sCompanyName": "АЗС 42",
		"sStationPhone": "+7 (921) 208 58-05",
		"sStationImage": "images/oilstation.jpg",
		"sStationLabel": "АЗС 42",
		"sStationCategory": "Новгороднефтепродукт",
		"sStationCity": "дер. Невская",
		"sDepartmentId": "nnp-m1_85",
		"sSort": 151
	},
	{
		"sStationId": "nnp-m1_177",
		"sStationName": "АЗС 43",
		"sStationAddress": "Борский сельсовет, ст.Уторгош",
		"sStationPostal": null,
		"dStationLatitude": 58.270064,
		"dStationLongitude": 30.116298,
		"sCompanyName": "АЗС 43",
		"sStationPhone": "+7 (921) 204 32-61",
		"sStationImage": "images/azs-223_1.jpg",
		"sStationLabel": "АЗС 43",
		"sStationCategory": "Новгороднефтепродукт",
		"sStationCity": "с. Уторгош",
		"sDepartmentId": "nnp-m1_177",
		"sSort": 152
	},
	{
		"sStationId": "nnp-m1_195",
		"sStationName": "АЗС 44",
		"sStationAddress": "443 км. автодороги «Россия»",
		"sStationPostal": null,
		"dStationLatitude": 58.249738,
		"dStationLongitude": 32.541256,
		"sCompanyName": "АЗС 44",
		"sStationPhone": "+7 (921) 191 05-98",
		"sStationImage": "images/oilstation.jpg",
		"sStationLabel": "АЗС 44",
		"sStationCategory": "Новгороднефтепродукт",
		"sStationCity": "п. Крестцы",
		"sDepartmentId": "nnp-m1_195",
		"sSort": 153
	},
	{
		"sStationId": "nnp-m1_179",
		"sStationName": "АЗС 45",
		"sStationAddress": "ул. Строителей, д.3а",
		"sStationPostal": null,
		"dStationLatitude": 58.002735,
		"dStationLongitude": 31.324721,
		"sCompanyName": "АЗС 45",
		"sStationPhone": "+7 (81652) 53-525",
		"sStationImage": "images/oilstation.jpg",
		"sStationLabel": "АЗС 45",
		"sStationCategory": "Новгороднефтепродукт",
		"sStationCity": "г. Старая Русса",
		"sDepartmentId": "nnp-m1_179",
		"sSort": 154
	},
	{
		"sStationId": "nnp-m1_181",
		"sStationName": "АЗС 46",
		"sStationAddress": "ул. Ленина",
		"sStationPostal": null,
		"dStationLatitude": 58.211731,
		"dStationLongitude": 30.714001,
		"sCompanyName": "АЗС 46",
		"sStationPhone": "+7 (921) 197 86-42",
		"sStationImage": "images/azs-224_1.jpg",
		"sStationLabel": "АЗС 46",
		"sStationCategory": "Новгороднефтепродукт",
		"sStationCity": "п. Шимск",
		"sDepartmentId": "nnp-m1_181",
		"sSort": 155
	},
	{
		"sStationId": "nnp-m1_123",
		"sStationName": "АЗС 50",
		"sStationAddress": "Юрьевское ш., 2 к. 1",
		"sStationPostal": null,
		"dStationLatitude": 58.496625,
		"dStationLongitude": 31.250754,
		"sCompanyName": "АЗС 50",
		"sStationPhone": "+7 (8162) 73-96-73",
		"sStationImage": "images/oilstation.jpg",
		"sStationLabel": "АЗС 50",
		"sStationCategory": "Новгороднефтепродукт",
		"sStationCity": "Великий Новгород",
		"sDepartmentId": "nnp-m1_123",
		"sSort": 156
	},
	{
		"sStationId": "nnp-m1_125",
		"sStationName": "АЗС 52",
		"sStationAddress": "ул. Московская, д. 26",
		"sStationPostal": null,
		"dStationLatitude": 58.733507,
		"dStationLongitude": 32.460722,
		"sCompanyName": "АЗС 52",
		"sStationPhone": "+7 (921) 840 10-34",
		"sStationImage": "images/oilstation.jpg",
		"sStationLabel": "АЗС 52",
		"sStationCategory": "Новгороднефтепродукт",
		"sStationCity": "д. Бурга",
		"sDepartmentId": "nnp-m1_125",
		"sSort": 157
	},
	{
		"sStationId": "nnp-m1_193",
		"sStationName": "АЗС 53",
		"sStationAddress": "д. Большая Козона (контейнерная)",
		"sStationPostal": null,
		"dStationLatitude": 57.951847,
		"dStationLongitude": 31.352425,
		"sCompanyName": "АЗС 53",
		"sStationPhone": "+7 (921) 737 78-96",
		"sStationImage": "images/oilstation.jpg",
		"sStationLabel": "АЗС 53",
		"sStationCategory": "Новгороднефтепродукт",
		"sStationCity": "Утушкинский с-т",
		"sDepartmentId": "nnp-m1_193",
		"sSort": 158
	},
	{
		"sStationId": "nnp-m1_127",
		"sStationName": "АЗС 54",
		"sStationAddress": "ул. Лужская",
		"sStationPostal": null,
		"dStationLatitude": 58.645578,
		"dStationLongitude": 30.291578,
		"sCompanyName": "АЗС 54",
		"sStationPhone": "+7 (921) 840 10-36",
		"sStationImage": "images/oilstation.jpg",
		"sStationLabel": "АЗС 54",
		"sStationCategory": "Новгороднефтепродукт",
		"sStationCity": "п. Батецкий",
		"sDepartmentId": "nnp-m1_127",
		"sSort": 159
	},
	{
		"sStationId": "nnp-m1_89",
		"sStationName": "АЗС 55",
		"sStationAddress": "362 км автодороги «Россия»",
		"sStationPostal": null,
		"dStationLatitude": 57.913391,
		"dStationLongitude": 33.619809,
		"sCompanyName": "АЗС 55",
		"sStationPhone": "+7 (921) 022 85-89",
		"sStationImage": "images/oilstation.jpg",
		"sStationLabel": "АЗС 55",
		"sStationCategory": "Новгороднефтепродукт",
		"sStationCity": "с. Едрово",
		"sDepartmentId": "nnp-m1_89",
		"sSort": 160
	},
	{
		"sStationId": "nnp-m1_97",
		"sStationName": "АЗС 56",
		"sStationAddress": "(контейнерная)",
		"sStationPostal": null,
		"dStationLatitude": 57.314612,
		"dStationLongitude": 32.07971,
		"sCompanyName": "АЗС 56",
		"sStationPhone": "+7 (921) 699 41-53",
		"sStationImage": "images/oilstation.jpg",
		"sStationLabel": "АЗС 56",
		"sStationCategory": "Новгороднефтепродукт",
		"sStationCity": "п. Марево",
		"sDepartmentId": "nnp-m1_97",
		"sSort": 161
	},
	{
		"sStationId": "nnp-m1_159",
		"sStationName": "АЗС 58",
		"sStationAddress": "ул. Транзитная",
		"sStationPostal": null,
		"dStationLatitude": 58.377131,
		"dStationLongitude": 33.942843,
		"sCompanyName": "АЗС 58",
		"sStationPhone": "+7 (921) 190 45-89",
		"sStationImage": "images/oilstation.jpg",
		"sStationLabel": "АЗС 58",
		"sStationCategory": "Новгороднефтепродукт",
		"sStationCity": "г. Боровичи",
		"sDepartmentId": "nnp-m1_159",
		"sSort": 162
	},
	{
		"sStationId": "nnp-m1_129",
		"sStationName": "АЗС 59",
		"sStationAddress": "ул. Дальняя, д.1А(Нехинское ш.)",
		"sStationPostal": null,
		"dStationLatitude": 58.523642,
		"dStationLongitude": 31.212261,
		"sCompanyName": "АЗС 59",
		"sStationPhone": "+7 (921) 208 5803",
		"sStationImage": "images/oilstation.jpg",
		"sStationLabel": "АЗС 59",
		"sStationCategory": "Новгороднефтепродукт",
		"sStationCity": "Великий Новгород",
		"sDepartmentId": "nnp-m1_129",
		"sSort": 163
	},
	{
		"sStationId": "nnp-m1_131",
		"sStationName": "АЗС 60",
		"sStationAddress": "ул. Радищева, д.4",
		"sStationPostal": null,
		"dStationLatitude": 58.562459,
		"dStationLongitude": 31.27261,
		"sCompanyName": "АЗС 60",
		"sStationPhone": "+7 (8162) 73-16-60",
		"sStationImage": "images/oilstation.jpg",
		"sStationLabel": "АЗС 60",
		"sStationCategory": "Новгороднефтепродукт",
		"sStationCity": "Великий Новгород",
		"sDepartmentId": "nnp-m1_131",
		"sSort": 164
	},
	{
		"sStationId": "nnp-m1_161",
		"sStationName": "АЗС 61",
		"sStationAddress": "ул. Славная, 1г",
		"sStationPostal": null,
		"dStationLatitude": 58.59743,
		"dStationLongitude": 35.822226,
		"sCompanyName": "АЗС 61",
		"sStationPhone": "+7 (921) 190 45-98",
		"sStationImage": null,
		"sStationLabel": "АЗС 61",
		"sStationCategory": "Новгороднефтепродукт",
		"sStationCity": "г. Пестово",
		"sDepartmentId": "nnp-m1_161",
		"sSort": 165
	},
	{
		"sStationId": "nnp-m1_133",
		"sStationName": "АЗС 62",
		"sStationAddress": "ул. Ленина, д. 65а",
		"sStationPostal": null,
		"dStationLatitude": 58.837828,
		"dStationLongitude": 32.192907,
		"sCompanyName": "АЗС 62",
		"sStationPhone": "+7 (921) 840 10-32",
		"sStationImage": "images/oilstation.jpg",
		"sStationLabel": "АЗС 62",
		"sStationCategory": "Новгороднефтепродукт",
		"sStationCity": "г. Малая Вишера",
		"sDepartmentId": "nnp-m1_133",
		"sSort": 166
	},
	{
		"sStationId": "nnp-m1_99",
		"sStationName": "АЗС 63",
		"sStationAddress": "427 км автодороги «Россия»",
		"sStationPostal": null,
		"dStationLatitude": 58.158435,
		"dStationLongitude": 32.73354,
		"sCompanyName": "АЗС 63",
		"sStationPhone": "+7 (921) 022 85-78",
		"sStationImage": "images/oilstation.jpg",
		"sStationLabel": "АЗС 63",
		"sStationCategory": "Новгороднефтепродукт",
		"sStationCity": "д. Сидельниково",
		"sDepartmentId": "nnp-m1_99",
		"sSort": 167
	},
	{
		"sStationId": "nnp-m1_163",
		"sStationName": "АЗС 64",
		"sStationAddress": null,
		"sStationPostal": null,
		"dStationLatitude": 58.33783,
		"dStationLongitude": 33.880976,
		"sCompanyName": "АЗС 64",
		"sStationPhone": "+7 (921) 190 46-39",
		"sStationImage": "images/oilstation.jpg",
		"sStationLabel": "АЗС 64",
		"sStationCategory": "Новгороднефтепродукт",
		"sStationCity": "д. Плавково",
		"sDepartmentId": "nnp-m1_163",
		"sSort": 168
	},
	{
		"sStationId": "nnp-m1_183",
		"sStationName": "АЗС 65",
		"sStationAddress": "ул. Вокзальная",
		"sStationPostal": null,
		"dStationLatitude": 57.93022,
		"dStationLongitude": 30.702907,
		"sCompanyName": "АЗС 65",
		"sStationPhone": "+7 (81662) 6-12-70",
		"sStationImage": "images/oilstation.jpg",
		"sStationLabel": "АЗС 65",
		"sStationCategory": "Новгороднефтепродукт",
		"sStationCity": "п. Волот",
		"sDepartmentId": "nnp-m1_183",
		"sSort": 169
	},
	{
		"sStationId": "nnp-m1_79",
		"sStationName": "АЗС № 05",
		"sStationAddress": "Батецкий р-н, Мойка ст.",
		"sStationPostal": null,
		"dStationLatitude": 58.622263,
		"dStationLongitude": 30.625454,
		"sCompanyName": "АЗС № 05",
		"sStationPhone": "(81661) 2-44-30",
		"sStationImage": "images/oilstation.jpg",
		"sStationLabel": "АЗС № 05",
		"sStationCategory": "Новгороднефтепродукт",
		"sStationCity": "Новгородская обл.",
		"sDepartmentId": "nnp-m1_79",
		"sSort": 170
	},
	{
		"sStationId": "sng-315",
		"sStationName": "АЗС 1",
		"sStationAddress": "Октябрьский проспект, дом 4",
		"sStationPostal": null,
		"dStationLatitude": 57.84663,
		"dStationLongitude": 28.29511,
		"sCompanyName": "АЗС 1",
		"sStationPhone": "+7 8112 111-222",
		"sStationImage": "images/oilstation.jpg",
		"sStationLabel": "АЗС 1",
		"sStationCategory": "Псковнефтепродукт",
		"sStationCity": "Псковская область",
		"sDepartmentId": null,
		"sSort": 171
	},
	{
		"sStationId": "sng-320",
		"sStationName": "АЗС 2",
		"sStationAddress": "Октябрьский проспект, дом 4",
		"sStationPostal": null,
		"dStationLatitude": 57.80185,
		"dStationLongitude": 28.35771,
		"sCompanyName": "АЗС 2",
		"sStationPhone": "+7 8112 111-222",
		"sStationImage": "images/oilstation.jpg",
		"sStationLabel": "АЗС 2",
		"sStationCategory": "Псковнефтепродукт",
		"sStationCity": "Псковская область",
		"sDepartmentId": null,
		"sSort": 172
	},
	{
		"sStationId": "sng-322",
		"sStationName": "АЗС 4",
		"sStationAddress": "Октябрьский проспект, дом 4",
		"sStationPostal": null,
		"dStationLatitude": 57.81016,
		"dStationLongitude": 28.43143,
		"sCompanyName": "АЗС 4",
		"sStationPhone": "+7 8112 111-222",
		"sStationImage": "images/oilstation.jpg",
		"sStationLabel": "АЗС 4",
		"sStationCategory": "Псковнефтепродукт",
		"sStationCity": "Псковская область",
		"sDepartmentId": null,
		"sSort": 173
	},
	{
		"sStationId": "sng-314",
		"sStationName": "АЗС 5",
		"sStationAddress": "Октябрьский проспект, дом 4",
		"sStationPostal": null,
		"dStationLatitude": 57.52843,
		"dStationLongitude": 28.02191,
		"sCompanyName": "АЗС 5",
		"sStationPhone": "+7 8112 111-222",
		"sStationImage": "images/oilstation.jpg",
		"sStationLabel": "АЗС 5",
		"sStationCategory": "Псковнефтепродукт",
		"sStationCity": "Псковская область",
		"sDepartmentId": null,
		"sSort": 174
	},
	{
		"sStationId": "sng-309",
		"sStationName": "АЗС 6",
		"sStationAddress": "Октябрьский проспект, дом 4",
		"sStationPostal": null,
		"dStationLatitude": 57.64576,
		"dStationLongitude": 27.39501,
		"sCompanyName": "АЗС 6",
		"sStationPhone": "+7 8112 111-222",
		"sStationImage": "images/oilstation.jpg",
		"sStationLabel": "АЗС 6",
		"sStationCategory": "Псковнефтепродукт",
		"sStationCity": "Псковская область",
		"sDepartmentId": null,
		"sSort": 175
	},
	{
		"sStationId": "sng-346",
		"sStationName": "АЗС 8",
		"sStationAddress": "Октябрьский проспект, дом 4",
		"sStationPostal": null,
		"dStationLatitude": 57.02166,
		"dStationLongitude": 28.93973,
		"sCompanyName": "АЗС 8",
		"sStationPhone": "+7 8112 111-222",
		"sStationImage": null,
		"sStationLabel": "АЗС 8",
		"sStationCategory": "Псковнефтепродукт",
		"sStationCity": "Псковская область",
		"sDepartmentId": null,
		"sSort": 176
	},
	{
		"sStationId": "sng-332",
		"sStationName": "АЗС 9",
		"sStationAddress": "Октябрьский проспект, дом 4",
		"sStationPostal": null,
		"dStationLatitude": 57.06195,
		"dStationLongitude": 27.93913,
		"sCompanyName": "АЗС 9",
		"sStationPhone": "+7 8112 111-222",
		"sStationImage": "images/oilstation.jpg",
		"sStationLabel": "АЗС 9",
		"sStationCategory": "Псковнефтепродукт",
		"sStationCity": "Псковская область",
		"sDepartmentId": null,
		"sSort": 177
	},
	{
		"sStationId": "sng-356",
		"sStationName": "АЗС 10",
		"sStationAddress": "Октябрьский проспект, дом 4",
		"sStationPostal": null,
		"dStationLatitude": 56.28888,
		"dStationLongitude": 30.54765,
		"sCompanyName": "АЗС 10",
		"sStationPhone": "+7 8112 111-222",
		"sStationImage": null,
		"sStationLabel": "АЗС 10",
		"sStationCategory": "Псковнефтепродукт",
		"sStationCity": "Псковская область",
		"sDepartmentId": null,
		"sSort": 178
	},
	{
		"sStationId": "sng-341",
		"sStationName": "АЗС 11",
		"sStationAddress": "Октябрьский проспект, дом 4",
		"sStationPostal": null,
		"dStationLatitude": 56.28896,
		"dStationLongitude": 28.49235,
		"sCompanyName": "АЗС 11",
		"sStationPhone": "+7 8112 111-222",
		"sStationImage": "images/oilstation.jpg",
		"sStationLabel": "АЗС 11",
		"sStationCategory": "Псковнефтепродукт",
		"sStationCity": "Псковская область",
		"sDepartmentId": null,
		"sSort": 179
	},
	{
		"sStationId": "sng-337",
		"sStationName": "АЗС 12",
		"sStationAddress": "Октябрьский проспект, дом 4",
		"sStationPostal": null,
		"dStationLatitude": 56.71091,
		"dStationLongitude": 28.69131,
		"sCompanyName": "АЗС 12",
		"sStationPhone": "+7 8112 111-222",
		"sStationImage": "images/oilstation.jpg",
		"sStationLabel": "АЗС 12",
		"sStationCategory": "Псковнефтепродукт",
		"sStationCity": "Псковская область",
		"sDepartmentId": null,
		"sSort": 180
	},
	{
		"sStationId": "sng-345",
		"sStationName": "АЗС 13",
		"sStationAddress": "Октябрьский проспект, дом 4",
		"sStationPostal": null,
		"dStationLatitude": 56.31755,
		"dStationLongitude": 29.39143,
		"sCompanyName": "АЗС 13",
		"sStationPhone": "+7 8112 111-222",
		"sStationImage": "images/oilstation.jpg",
		"sStationLabel": "АЗС 13",
		"sStationCategory": "Псковнефтепродукт",
		"sStationCity": "Псковская область",
		"sDepartmentId": null,
		"sSort": 181
	},
	{
		"sStationId": "sng-361",
		"sStationName": "АЗС 14",
		"sStationAddress": "Октябрьский проспект, дом 4",
		"sStationPostal": null,
		"dStationLatitude": 56.0375,
		"dStationLongitude": 29.89016,
		"sCompanyName": "АЗС 14",
		"sStationPhone": "+7 8112 111-222",
		"sStationImage": null,
		"sStationLabel": "АЗС 14",
		"sStationCategory": "Псковнефтепродукт",
		"sStationCity": "Псковская область",
		"sDepartmentId": null,
		"sSort": 182
	},
	{
		"sStationId": "sng-363",
		"sStationName": "АЗС 15",
		"sStationAddress": "Октябрьский проспект, дом 4",
		"sStationPostal": null,
		"dStationLatitude": 55.98693,
		"dStationLongitude": 29.957,
		"sCompanyName": "АЗС 15",
		"sStationPhone": "+7 8112 111-222",
		"sStationImage": "images/azk-22_1.jpg",
		"sStationLabel": "АЗС 15",
		"sStationCategory": "Псковнефтепродукт",
		"sStationCity": "Псковская область",
		"sDepartmentId": null,
		"sSort": 183
	},
	{
		"sStationId": "sng-364",
		"sStationName": "АЗС 16",
		"sStationAddress": "Октябрьский проспект, дом 4",
		"sStationPostal": null,
		"dStationLatitude": 55.7507,
		"dStationLongitude": 30.751,
		"sCompanyName": "АЗС 16",
		"sStationPhone": "+7 8112 111-222",
		"sStationImage": "images/azk-29_2.jpg",
		"sStationLabel": "АЗС 16",
		"sStationCategory": "Псковнефтепродукт",
		"sStationCity": "Псковская область",
		"sDepartmentId": null,
		"sSort": 184
	},
	{
		"sStationId": "sng-355",
		"sStationName": "АЗС 17",
		"sStationAddress": "Октябрьский проспект, дом 4",
		"sStationPostal": null,
		"dStationLatitude": 56.31079,
		"dStationLongitude": 30.51472,
		"sCompanyName": "АЗС 17",
		"sStationPhone": "+7 8112 111-222",
		"sStationImage": "images/azs-227_3.jpg",
		"sStationLabel": "АЗС 17",
		"sStationCategory": "Псковнефтепродукт",
		"sStationCity": "Псковская область",
		"sDepartmentId": null,
		"sSort": 185
	},
	{
		"sStationId": "sng-357",
		"sStationName": "АЗС 18",
		"sStationAddress": "Октябрьский проспект, дом 4",
		"sStationPostal": null,
		"dStationLatitude": 56.3518,
		"dStationLongitude": 30.49846,
		"sCompanyName": "АЗС 18",
		"sStationPhone": "+7 8112 111-222",
		"sStationImage": "images/azs-213.jpg",
		"sStationLabel": "АЗС 18",
		"sStationCategory": "Псковнефтепродукт",
		"sStationCity": "Псковская область",
		"sDepartmentId": null,
		"sSort": 186
	},
	{
		"sStationId": "sng-359",
		"sStationName": "АЗС 19",
		"sStationAddress": "Октябрьский проспект, дом 4",
		"sStationPostal": null,
		"dStationLatitude": 56.27971,
		"dStationLongitude": 30.97416,
		"sCompanyName": "АЗС 19",
		"sStationPhone": "+7 8112 111-222",
		"sStationImage": null,
		"sStationLabel": "АЗС 19",
		"sStationCategory": "Псковнефтепродукт",
		"sStationCity": "Псковская область",
		"sDepartmentId": null,
		"sSort": 187
	},
	{
		"sStationId": "sng-348",
		"sStationName": "АЗС 20",
		"sStationAddress": "Октябрьский проспект, дом 4",
		"sStationPostal": null,
		"dStationLatitude": 56.97821,
		"dStationLongitude": 29.87188,
		"sCompanyName": "АЗС 20",
		"sStationPhone": "+7 8112 111-222",
		"sStationImage": null,
		"sStationLabel": "АЗС 20",
		"sStationCategory": "Псковнефтепродукт",
		"sStationCity": "Псковская область",
		"sDepartmentId": null,
		"sSort": 188
	},
	{
		"sStationId": "sng-347",
		"sStationName": "АЗС 21",
		"sStationAddress": "Октябрьский проспект, дом 4",
		"sStationPostal": null,
		"dStationLatitude": 57.02869,
		"dStationLongitude": 29.36733,
		"sCompanyName": "АЗС 21",
		"sStationPhone": "+7 8112 111-222",
		"sStationImage": null,
		"sStationLabel": "АЗС 21",
		"sStationCategory": "Псковнефтепродукт",
		"sStationCity": "Псковская область",
		"sDepartmentId": null,
		"sSort": 189
	},
	{
		"sStationId": "sng-319",
		"sStationName": "АЗС 22",
		"sStationAddress": "Октябрьский проспект, дом 4",
		"sStationPostal": null,
		"dStationLatitude": 57.819935,
		"dStationLongitude": 28.365248,
		"sCompanyName": "АЗС 22",
		"sStationPhone": "+7 8112 111-222",
		"sStationImage": "images/oilstation.jpg",
		"sStationLabel": "АЗС 22",
		"sStationCategory": "Псковнефтепродукт",
		"sStationCity": "Псковская область",
		"sDepartmentId": null,
		"sSort": 190
	},
	{
		"sStationId": "sng-330",
		"sStationName": "АЗС 24",
		"sStationAddress": "Октябрьский проспект, дом 4",
		"sStationPostal": null,
		"dStationLatitude": 57.5389,
		"dStationLongitude": 29.97093,
		"sCompanyName": "АЗС 24",
		"sStationPhone": "+7 8112 111-222",
		"sStationImage": "images/oilstation.jpg",
		"sStationLabel": "АЗС 24",
		"sStationCategory": "Псковнефтепродукт",
		"sStationCity": "Псковская область",
		"sDepartmentId": null,
		"sSort": 191
	},
	{
		"sStationId": "sng-329",
		"sStationName": "АЗС 25",
		"sStationAddress": "Октябрьский проспект, дом 4",
		"sStationPostal": null,
		"dStationLatitude": 57.78576,
		"dStationLongitude": 29.5342,
		"sCompanyName": "АЗС 25",
		"sStationPhone": "+7 8112 111-222",
		"sStationImage": "images/oilstation.jpg",
		"sStationLabel": "АЗС 25",
		"sStationCategory": "Псковнефтепродукт",
		"sStationCity": "Псковская область",
		"sDepartmentId": null,
		"sSort": 192
	},
	{
		"sStationId": "sng-338",
		"sStationName": "АЗС 27",
		"sStationAddress": "Октябрьский проспект, дом 4",
		"sStationPostal": null,
		"dStationLatitude": 56.35991,
		"dStationLongitude": 28.23162,
		"sCompanyName": "АЗС 27",
		"sStationPhone": "+7 8112 111-222",
		"sStationImage": "images/oilstation.jpg",
		"sStationLabel": "АЗС 27",
		"sStationCategory": "Псковнефтепродукт",
		"sStationCity": "Псковская область",
		"sDepartmentId": null,
		"sSort": 193
	},
	{
		"sStationId": "sng-331",
		"sStationName": "АЗС 29",
		"sStationAddress": "Октябрьский проспект, дом 4",
		"sStationPostal": null,
		"dStationLatitude": 57.13136,
		"dStationLongitude": 27.78161,
		"sCompanyName": "АЗС 29",
		"sStationPhone": "+7 8112 111-222",
		"sStationImage": "images/oilstation.jpg",
		"sStationLabel": "АЗС 29",
		"sStationCategory": "Псковнефтепродукт",
		"sStationCity": "Псковская область",
		"sDepartmentId": null,
		"sSort": 194
	},
	{
		"sStationId": "sng-307",
		"sStationName": "АЗС 31",
		"sStationAddress": "Октябрьский проспект, дом 4",
		"sStationPostal": null,
		"dStationLatitude": 57.82188,
		"dStationLongitude": 27.64303,
		"sCompanyName": "АЗС 31",
		"sStationPhone": "+7 8112 111-222",
		"sStationImage": "images/oilstation.jpg",
		"sStationLabel": "АЗС 31",
		"sStationCategory": "Псковнефтепродукт",
		"sStationCity": "Псковская область",
		"sDepartmentId": null,
		"sSort": 195
	},
	{
		"sStationId": "sng-321",
		"sStationName": "АЗС 32",
		"sStationAddress": "Октябрьский проспект, дом 4",
		"sStationPostal": null,
		"dStationLatitude": 57.82778,
		"dStationLongitude": 28.41305,
		"sCompanyName": "АЗС 32",
		"sStationPhone": "+7 8112 111-222",
		"sStationImage": "images/oilstation.jpg",
		"sStationLabel": "АЗС 32",
		"sStationCategory": "Псковнефтепродукт",
		"sStationCity": "Псковская область",
		"sDepartmentId": null,
		"sSort": 196
	},
	{
		"sStationId": "sng-340",
		"sStationName": "АЗС 34",
		"sStationAddress": "Октябрьский проспект, дом 4",
		"sStationPostal": null,
		"dStationLatitude": 56.28741,
		"dStationLongitude": 28.43965,
		"sCompanyName": "АЗС 34",
		"sStationPhone": "+7 8112 111-222",
		"sStationImage": "images/oilstation.jpg",
		"sStationLabel": "АЗС 34",
		"sStationCategory": "Псковнефтепродукт",
		"sStationCity": "Псковская область",
		"sDepartmentId": null,
		"sSort": 197
	},
	{
		"sStationId": "sng-350",
		"sStationName": "АЗС 35",
		"sStationAddress": "Октябрьский проспект, дом 4",
		"sStationPostal": null,
		"dStationLatitude": 56.3212,
		"dStationLongitude": 30.13531,
		"sCompanyName": "АЗС 35",
		"sStationPhone": "+7 8112 111-222",
		"sStationImage": "images/azs-245_1.jpg",
		"sStationLabel": "АЗС 35",
		"sStationCategory": "Псковнефтепродукт",
		"sStationCity": "Псковская область",
		"sDepartmentId": null,
		"sSort": 198
	},
	{
		"sStationId": "sng-324",
		"sStationName": "АЗС 36",
		"sStationAddress": "Октябрьский проспект, дом 4",
		"sStationPostal": null,
		"dStationLatitude": 57.35883,
		"dStationLongitude": 28.36565,
		"sCompanyName": "АЗС 36",
		"sStationPhone": "+7 8112 111-222",
		"sStationImage": "images/oilstation.jpg",
		"sStationLabel": "АЗС 36",
		"sStationCategory": "Псковнефтепродукт",
		"sStationCity": "Псковская область",
		"sDepartmentId": null,
		"sSort": 199
	},
	{
		"sStationId": "sng-323",
		"sStationName": "АЗС 37",
		"sStationAddress": "Октябрьский проспект, дом 4",
		"sStationPostal": null,
		"dStationLatitude": 57.36123,
		"dStationLongitude": 28.36251,
		"sCompanyName": "АЗС 37",
		"sStationPhone": "+7 8112 111-222",
		"sStationImage": "images/oilstation.jpg",
		"sStationLabel": "АЗС 37",
		"sStationCategory": "Псковнефтепродукт",
		"sStationCity": "Псковская область",
		"sDepartmentId": null,
		"sSort": 200
	},
	{
		"sStationId": "sng-304",
		"sStationName": "АЗС 38",
		"sStationAddress": "Октябрьский проспект, дом 4",
		"sStationPostal": null,
		"dStationLatitude": 58.41808,
		"dStationLongitude": 29.41431,
		"sCompanyName": "АЗС 38",
		"sStationPhone": "+7 8112 111-222",
		"sStationImage": "images/oilstation.jpg",
		"sStationLabel": "АЗС 38",
		"sStationCategory": "Псковнефтепродукт",
		"sStationCity": "Псковская область",
		"sDepartmentId": null,
		"sSort": 201
	},
	{
		"sStationId": "sng-316",
		"sStationName": "АЗС 39",
		"sStationAddress": "Октябрьский проспект, дом 4",
		"sStationPostal": null,
		"dStationLatitude": 57.81096,
		"dStationLongitude": 28.28365,
		"sCompanyName": "АЗС 39",
		"sStationPhone": "+7 8112 111-222",
		"sStationImage": "images/oilstation.jpg",
		"sStationLabel": "АЗС 39",
		"sStationCategory": "Псковнефтепродукт",
		"sStationCity": "Псковская область",
		"sDepartmentId": null,
		"sSort": 202
	},
	{
		"sStationId": "sng-354",
		"sStationName": "АЗС 40",
		"sStationAddress": "Октябрьский проспект, дом 4",
		"sStationPostal": null,
		"dStationLatitude": 56.32795,
		"dStationLongitude": 30.52001,
		"sCompanyName": "АЗС 40",
		"sStationPhone": "+7 8112 111-222",
		"sStationImage": "images/azs-212_1.jpg",
		"sStationLabel": "АЗС 40",
		"sStationCategory": "Псковнефтепродукт",
		"sStationCity": "Псковская область",
		"sDepartmentId": null,
		"sSort": 203
	},
	{
		"sStationId": "sng-335",
		"sStationName": "АЗС 41",
		"sStationAddress": "Октябрьский проспект, дом 4",
		"sStationPostal": null,
		"dStationLatitude": 56.82455,
		"dStationLongitude": 28.25691,
		"sCompanyName": "АЗС 41",
		"sStationPhone": "+7 8112 111-222",
		"sStationImage": "images/oilstation.jpg",
		"sStationLabel": "АЗС 41",
		"sStationCategory": "Псковнефтепродукт",
		"sStationCity": "Псковская область",
		"sDepartmentId": null,
		"sSort": 204
	},
	{
		"sStationId": "sng-301",
		"sStationName": "АЗС 42",
		"sStationAddress": "Октябрьский проспект, дом 4",
		"sStationPostal": null,
		"dStationLatitude": 58.75816,
		"dStationLongitude": 27.83911,
		"sCompanyName": "АЗС 42",
		"sStationPhone": "+7 8112 111-222",
		"sStationImage": "images/oilstation.jpg",
		"sStationLabel": "АЗС 42",
		"sStationCategory": "Псковнефтепродукт",
		"sStationCity": "Псковская область",
		"sDepartmentId": null,
		"sSort": 205
	},
	{
		"sStationId": "sng-352",
		"sStationName": "АЗС 43",
		"sStationAddress": "Октябрьский проспект, дом 4",
		"sStationPostal": null,
		"dStationLatitude": 56.35676,
		"dStationLongitude": 30.5135,
		"sCompanyName": "АЗС 43",
		"sStationPhone": "+7 8112 111-222",
		"sStationImage": "images/azs-224_1.jpg",
		"sStationLabel": "АЗС 43",
		"sStationCategory": "Псковнефтепродукт",
		"sStationCity": "Псковская область",
		"sDepartmentId": null,
		"sSort": 206
	},
	{
		"sStationId": "sng-311",
		"sStationName": "АЗС 44",
		"sStationAddress": "Октябрьский проспект, дом 4",
		"sStationPostal": null,
		"dStationLatitude": 57.56931,
		"dStationLongitude": 27.46845,
		"sCompanyName": "АЗС 44",
		"sStationPhone": "+7 8112 111-222",
		"sStationImage": "images/oilstation.jpg",
		"sStationLabel": "АЗС 44",
		"sStationCategory": "Псковнефтепродукт",
		"sStationCity": "Псковская область",
		"sDepartmentId": null,
		"sSort": 207
	},
	{
		"sStationId": "sng-328",
		"sStationName": "АЗС 48",
		"sStationAddress": "Октябрьский проспект, дом 4",
		"sStationPostal": null,
		"dStationLatitude": 57.75621,
		"dStationLongitude": 29.5273,
		"sCompanyName": "АЗС 48",
		"sStationPhone": "+7 8112 111-222",
		"sStationImage": "images/oilstation.jpg",
		"sStationLabel": "АЗС 48",
		"sStationCategory": "Псковнефтепродукт",
		"sStationCity": "Псковская область",
		"sDepartmentId": null,
		"sSort": 208
	},
	{
		"sStationId": "sng-336",
		"sStationName": "АЗС 49",
		"sStationAddress": "Октябрьский проспект, дом 4",
		"sStationPostal": null,
		"dStationLatitude": 56.69601,
		"dStationLongitude": 28.65058,
		"sCompanyName": "АЗС 49",
		"sStationPhone": "+7 8112 111-222",
		"sStationImage": "images/oilstation.jpg",
		"sStationLabel": "АЗС 49",
		"sStationCategory": "Псковнефтепродукт",
		"sStationCity": "Псковская область",
		"sDepartmentId": null,
		"sSort": 209
	},
	{
		"sStationId": "sng-325",
		"sStationName": "АЗС 50",
		"sStationAddress": "Октябрьский проспект, дом 4",
		"sStationPostal": null,
		"dStationLatitude": 57.35496,
		"dStationLongitude": 28.32805,
		"sCompanyName": "АЗС 50",
		"sStationPhone": "+7 8112 111-222",
		"sStationImage": "images/oilstation.jpg",
		"sStationLabel": "АЗС 50",
		"sStationCategory": "Псковнефтепродукт",
		"sStationCity": "Псковская область",
		"sDepartmentId": null,
		"sSort": 210
	},
	{
		"sStationId": "sng-360",
		"sStationName": "АЗС 51",
		"sStationAddress": "Октябрьский проспект, дом 4",
		"sStationPostal": null,
		"dStationLatitude": 56.03625,
		"dStationLongitude": 29.88193,
		"sCompanyName": "АЗС 51",
		"sStationPhone": "+7 8112 111-222",
		"sStationImage": "images/azs-232_1.jpg",
		"sStationLabel": "АЗС 51",
		"sStationCategory": "Псковнефтепродукт",
		"sStationCity": "Псковская область",
		"sDepartmentId": null,
		"sSort": 211
	},
	{
		"sStationId": "sng-326",
		"sStationName": "АЗС 52",
		"sStationAddress": "Октябрьский проспект, дом 4",
		"sStationPostal": null,
		"dStationLatitude": 57.33188,
		"dStationLongitude": 28.37033,
		"sCompanyName": "АЗС 52",
		"sStationPhone": "+7 8112 111-222",
		"sStationImage": "images/oilstation.jpg",
		"sStationLabel": "АЗС 52",
		"sStationCategory": "Псковнефтепродукт",
		"sStationCity": "Псковская область",
		"sDepartmentId": null,
		"sSort": 212
	},